[
  {
    "station": "Z\u00fcrs-Hexenboden",
    "hzb": "115337",
    "lat": 47.96996243243243,
    "lon": 9.805948666666666,
    "mean_annual_mm": 1788.0,
    "trend_mm_decade": -448.6,
    "trend_pct_decade": -25.1,
    "years_data": 16
  },
  {
    "station": "Gapfohl",
    "hzb": "115352",
    "lat": 48.089910900900904,
    "lon": 9.4004556,
    "mean_annual_mm": 1610.0,
    "trend_mm_decade": -393.3,
    "trend_pct_decade": -24.4,
    "years_data": 12
  },
  {
    "station": "Lahnsattel",
    "hzb": "101642",
    "lat": 48.54639774774775,
    "lon": 15.159722266666666,
    "mean_annual_mm": 1508.0,
    "trend_mm_decade": -183.7,
    "trend_pct_decade": -12.2,
    "years_data": 17
  },
  {
    "station": "Turracher H\u00f6he",
    "hzb": "123133",
    "lat": 47.672492342342345,
    "lon": 13.554406,
    "mean_annual_mm": 1138.0,
    "trend_mm_decade": -135.2,
    "trend_pct_decade": -11.9,
    "years_data": 25
  },
  {
    "station": "Brunnbach",
    "hzb": "106658",
    "lat": 48.5819263963964,
    "lon": 14.185802666666667,
    "mean_annual_mm": 1529.0,
    "trend_mm_decade": -134.0,
    "trend_pct_decade": -8.8,
    "years_data": 22
  },
  {
    "station": "Hahnenkamm-Reutte",
    "hzb": "101501",
    "lat": 48.25923117117117,
    "lon": 10.304629333333333,
    "mean_annual_mm": 1864.0,
    "trend_mm_decade": -123.5,
    "trend_pct_decade": -6.6,
    "years_data": 36
  },
  {
    "station": "Hocheck",
    "hzb": "117523",
    "lat": 48.80021306306306,
    "lon": 13.018401466666667,
    "mean_annual_mm": 1460.0,
    "trend_mm_decade": -121.1,
    "trend_pct_decade": -8.3,
    "years_data": 31
  },
  {
    "station": "Edelrautteh\u00fctte",
    "hzb": "106138",
    "lat": 48.19649765765766,
    "lon": 14.106212,
    "mean_annual_mm": 1328.0,
    "trend_mm_decade": -120.3,
    "trend_pct_decade": -9.1,
    "years_data": 22
  },
  {
    "station": "Gasen",
    "hzb": "115295",
    "lat": 48.16212918918919,
    "lon": 15.26303,
    "mean_annual_mm": 1032.0,
    "trend_mm_decade": -114.4,
    "trend_pct_decade": -11.1,
    "years_data": 17
  },
  {
    "station": "Na\u00dffeld",
    "hzb": "114637",
    "lat": 47.311477477477474,
    "lon": 12.941233333333333,
    "mean_annual_mm": 1994.0,
    "trend_mm_decade": -114.2,
    "trend_pct_decade": -5.7,
    "years_data": 39
  },
  {
    "station": "Kaisers",
    "hzb": "101147",
    "lat": 48.005677117117116,
    "lon": 9.935716666666666,
    "mean_annual_mm": 1562.0,
    "trend_mm_decade": -112.6,
    "trend_pct_decade": -7.2,
    "years_data": 31
  },
  {
    "station": "Ried im Innkreis",
    "hzb": "112995",
    "lat": 48.97124207207207,
    "lon": 13.154810000000001,
    "mean_annual_mm": 864.0,
    "trend_mm_decade": -105.7,
    "trend_pct_decade": -12.2,
    "years_data": 10
  },
  {
    "station": "Gablitz",
    "hzb": "105056",
    "lat": 49.024543333333334,
    "lon": 15.7779788,
    "mean_annual_mm": 843.0,
    "trend_mm_decade": -101.4,
    "trend_pct_decade": -12.0,
    "years_data": 18
  },
  {
    "station": "Arzberg",
    "hzb": "112904",
    "lat": 48.02065522522523,
    "lon": 15.206019866666667,
    "mean_annual_mm": 931.0,
    "trend_mm_decade": -99.6,
    "trend_pct_decade": -10.7,
    "years_data": 14
  },
  {
    "station": "Seewiesen",
    "hzb": "123182",
    "lat": 48.39048666666667,
    "lon": 14.9410588,
    "mean_annual_mm": 1542.0,
    "trend_mm_decade": -98.7,
    "trend_pct_decade": -6.4,
    "years_data": 25
  },
  {
    "station": "Glanz",
    "hzb": "112946",
    "lat": 47.42380576576576,
    "lon": 15.2117632,
    "mean_annual_mm": 888.0,
    "trend_mm_decade": -97.8,
    "trend_pct_decade": -11.0,
    "years_data": 29
  },
  {
    "station": "St.Agatha",
    "hzb": "104992",
    "lat": 49.12695171171171,
    "lon": 13.545399333333332,
    "mean_annual_mm": 866.0,
    "trend_mm_decade": -95.0,
    "trend_pct_decade": -11.0,
    "years_data": 26
  },
  {
    "station": "Lessach",
    "hzb": "110163",
    "lat": 47.94259864864865,
    "lon": 13.4802064,
    "mean_annual_mm": 789.0,
    "trend_mm_decade": -92.3,
    "trend_pct_decade": -11.7,
    "years_data": 16
  },
  {
    "station": "Weitensfeld",
    "hzb": "115204",
    "lat": 47.60449045045045,
    "lon": 13.881795066666665,
    "mean_annual_mm": 915.0,
    "trend_mm_decade": -87.8,
    "trend_pct_decade": -9.6,
    "years_data": 18
  },
  {
    "station": "Jauken",
    "hzb": "110791",
    "lat": 47.42619765765766,
    "lon": 12.695746399999999,
    "mean_annual_mm": 1467.0,
    "trend_mm_decade": -87.7,
    "trend_pct_decade": -6.0,
    "years_data": 16
  },
  {
    "station": "Thalgau",
    "hzb": "115022",
    "lat": 48.62180378378378,
    "lon": 12.877677466666666,
    "mean_annual_mm": 1542.0,
    "trend_mm_decade": -85.3,
    "trend_pct_decade": -5.5,
    "years_data": 13
  },
  {
    "station": "Schwendt",
    "hzb": "105023",
    "lat": 48.40117387387387,
    "lon": 12.070713333333334,
    "mean_annual_mm": 1590.0,
    "trend_mm_decade": -82.6,
    "trend_pct_decade": -5.2,
    "years_data": 24
  },
  {
    "station": "Unterkirchbach",
    "hzb": "115089",
    "lat": 49.084087387387385,
    "lon": 15.832556933333333,
    "mean_annual_mm": 712.0,
    "trend_mm_decade": -73.5,
    "trend_pct_decade": -10.3,
    "years_data": 15
  },
  {
    "station": "Neuhofen an der Ybbs",
    "hzb": "116079",
    "lat": 48.82680585585585,
    "lon": 14.488453866666667,
    "mean_annual_mm": 882.0,
    "trend_mm_decade": -72.9,
    "trend_pct_decade": -8.3,
    "years_data": 31
  },
  {
    "station": "Elsbethen",
    "hzb": "101618",
    "lat": 48.515884864864866,
    "lon": 12.749030666666666,
    "mean_annual_mm": 1449.0,
    "trend_mm_decade": -72.1,
    "trend_pct_decade": -5.0,
    "years_data": 18
  },
  {
    "station": "Altm\u00fcnster",
    "hzb": "105767",
    "lat": 48.62790603603604,
    "lon": 13.425441866666667,
    "mean_annual_mm": 1442.0,
    "trend_mm_decade": -71.7,
    "trend_pct_decade": -5.0,
    "years_data": 24
  },
  {
    "station": "Alland (Autobahnmeisterei)",
    "hzb": "108183",
    "lat": 48.85211900900901,
    "lon": 15.714072133333334,
    "mean_annual_mm": 734.0,
    "trend_mm_decade": -70.8,
    "trend_pct_decade": -9.7,
    "years_data": 52
  },
  {
    "station": "Kindtal",
    "hzb": "101691",
    "lat": 48.298229009009006,
    "lon": 15.146598933333333,
    "mean_annual_mm": 756.0,
    "trend_mm_decade": -68.0,
    "trend_pct_decade": -9.0,
    "years_data": 20
  },
  {
    "station": "Haringgraben",
    "hzb": "112854",
    "lat": 48.31499891891892,
    "lon": 14.7833072,
    "mean_annual_mm": 1290.0,
    "trend_mm_decade": -65.1,
    "trend_pct_decade": -5.0,
    "years_data": 32
  },
  {
    "station": "D\u00fcrrnberg",
    "hzb": "106690",
    "lat": 48.41388720720721,
    "lon": 12.759010666666667,
    "mean_annual_mm": 1513.0,
    "trend_mm_decade": -62.0,
    "trend_pct_decade": -4.1,
    "years_data": 16
  },
  {
    "station": "Kernhof",
    "hzb": "115923",
    "lat": 48.596264414414414,
    "lon": 15.178982666666666,
    "mean_annual_mm": 1367.0,
    "trend_mm_decade": -61.2,
    "trend_pct_decade": -4.5,
    "years_data": 31
  },
  {
    "station": "Eberschwang",
    "hzb": "110783",
    "lat": 48.91155711711712,
    "lon": 13.225600266666667,
    "mean_annual_mm": 964.0,
    "trend_mm_decade": -59.2,
    "trend_pct_decade": -6.1,
    "years_data": 17
  },
  {
    "station": "Baad",
    "hzb": "101543",
    "lat": 48.108176486486485,
    "lon": 9.767132933333333,
    "mean_annual_mm": 2018.0,
    "trend_mm_decade": -53.2,
    "trend_pct_decade": -2.6,
    "years_data": 29
  },
  {
    "station": "Salmhof",
    "hzb": "116426",
    "lat": 49.082301711711715,
    "lon": 16.5101824,
    "mean_annual_mm": 561.0,
    "trend_mm_decade": -52.9,
    "trend_pct_decade": -9.4,
    "years_data": 26
  },
  {
    "station": "Frauenkirchen",
    "hzb": "106724",
    "lat": 48.635713603603605,
    "lon": 16.582566,
    "mean_annual_mm": 555.0,
    "trend_mm_decade": -52.6,
    "trend_pct_decade": -9.5,
    "years_data": 18
  },
  {
    "station": "Eferding",
    "hzb": "104984",
    "lat": 49.06246297297297,
    "lon": 13.687510533333333,
    "mean_annual_mm": 771.0,
    "trend_mm_decade": -52.4,
    "trend_pct_decade": -6.8,
    "years_data": 24
  },
  {
    "station": "Frein an der M\u00fcrz",
    "hzb": "112615",
    "lat": 48.51553711711712,
    "lon": 15.1535248,
    "mean_annual_mm": 1413.0,
    "trend_mm_decade": -52.4,
    "trend_pct_decade": -3.7,
    "years_data": 44
  },
  {
    "station": "Jungholz",
    "hzb": "101493",
    "lat": 48.361357567567566,
    "lon": 10.115690133333334,
    "mean_annual_mm": 1815.0,
    "trend_mm_decade": -47.2,
    "trend_pct_decade": -2.6,
    "years_data": 43
  },
  {
    "station": "Pechgraben",
    "hzb": "106583",
    "lat": 48.66931900900901,
    "lon": 14.195217333333332,
    "mean_annual_mm": 1484.0,
    "trend_mm_decade": -46.1,
    "trend_pct_decade": -3.1,
    "years_data": 33
  },
  {
    "station": "Heiligenkreuz",
    "hzb": "105080",
    "lat": 47.77803963963964,
    "lon": 15.9598524,
    "mean_annual_mm": 725.0,
    "trend_mm_decade": -45.7,
    "trend_pct_decade": -6.3,
    "years_data": 18
  },
  {
    "station": "Gargellen-Schafberg",
    "hzb": "100990",
    "lat": 47.760642612612614,
    "lon": 9.5162812,
    "mean_annual_mm": 1410.0,
    "trend_mm_decade": -45.1,
    "trend_pct_decade": -3.2,
    "years_data": 21
  },
  {
    "station": "Neuhaus am Zellerain",
    "hzb": "107003",
    "lat": 48.5635463963964,
    "lon": 14.872106533333334,
    "mean_annual_mm": 1636.0,
    "trend_mm_decade": -45.0,
    "trend_pct_decade": -2.7,
    "years_data": 52
  },
  {
    "station": "Anger",
    "hzb": "123075",
    "lat": 48.0547609009009,
    "lon": 15.377120933333334,
    "mean_annual_mm": 812.0,
    "trend_mm_decade": -44.9,
    "trend_pct_decade": -5.5,
    "years_data": 27
  },
  {
    "station": "H\u00f6rzendorf",
    "hzb": "114777",
    "lat": 47.49026558558558,
    "lon": 14.016303866666666,
    "mean_annual_mm": 848.0,
    "trend_mm_decade": -42.7,
    "trend_pct_decade": -5.0,
    "years_data": 25
  },
  {
    "station": "Ach-Burghausen",
    "hzb": "104489",
    "lat": 48.90300630630631,
    "lon": 12.5171456,
    "mean_annual_mm": 919.0,
    "trend_mm_decade": -42.4,
    "trend_pct_decade": -4.6,
    "years_data": 32
  },
  {
    "station": "Achenkirch-M\u00fchleggerk\u00f6pfl",
    "hzb": "101550",
    "lat": 48.345957297297296,
    "lon": 11.3024512,
    "mean_annual_mm": 1649.0,
    "trend_mm_decade": -41.9,
    "trend_pct_decade": -2.5,
    "years_data": 24
  },
  {
    "station": "Gries",
    "hzb": "119388",
    "lat": 47.84524045045045,
    "lon": 10.665334266666667,
    "mean_annual_mm": 870.0,
    "trend_mm_decade": -41.5,
    "trend_pct_decade": -4.8,
    "years_data": 25
  },
  {
    "station": "Friedburg",
    "hzb": "104976",
    "lat": 48.770183063063065,
    "lon": 12.9145728,
    "mean_annual_mm": 1336.0,
    "trend_mm_decade": -40.9,
    "trend_pct_decade": -3.1,
    "years_data": 29
  },
  {
    "station": "Strobl",
    "hzb": "105254",
    "lat": 48.475163153153154,
    "lon": 13.154256666666667,
    "mean_annual_mm": 1511.0,
    "trend_mm_decade": -38.7,
    "trend_pct_decade": -2.6,
    "years_data": 52
  },
  {
    "station": "Klausen-Leopoldsdorf",
    "hzb": "116368",
    "lat": 48.867693153153155,
    "lon": 15.6593008,
    "mean_annual_mm": 887.0,
    "trend_mm_decade": -38.5,
    "trend_pct_decade": -4.3,
    "years_data": 29
  },
  {
    "station": "Vorderer Langbathsee",
    "hzb": "105288",
    "lat": 48.58767900900901,
    "lon": 13.341148,
    "mean_annual_mm": 1739.0,
    "trend_mm_decade": -38.4,
    "trend_pct_decade": -2.2,
    "years_data": 52
  },
  {
    "station": "Wien (Gutheil-Schoder-Gasse)",
    "hzb": "117127",
    "lat": 48.94522234234234,
    "lon": 15.971289066666667,
    "mean_annual_mm": 617.0,
    "trend_mm_decade": -37.0,
    "trend_pct_decade": -6.0,
    "years_data": 29
  },
  {
    "station": "Farchtensee",
    "hzb": "113449",
    "lat": 47.432763963963964,
    "lon": 13.110753733333333,
    "mean_annual_mm": 1250.0,
    "trend_mm_decade": -34.9,
    "trend_pct_decade": -2.8,
    "years_data": 52
  },
  {
    "station": "Greith",
    "hzb": "106641",
    "lat": 48.323415135135136,
    "lon": 13.690500266666668,
    "mean_annual_mm": 1551.0,
    "trend_mm_decade": -34.6,
    "trend_pct_decade": -2.2,
    "years_data": 29
  },
  {
    "station": "St.Margarethen-Berg",
    "hzb": "110742",
    "lat": 48.5953445045045,
    "lon": 16.303014,
    "mean_annual_mm": 605.0,
    "trend_mm_decade": -34.6,
    "trend_pct_decade": -5.7,
    "years_data": 29
  },
  {
    "station": "Tr\u00f6polach",
    "hzb": "114884",
    "lat": 47.36423378378378,
    "lon": 12.948131866666667,
    "mean_annual_mm": 1507.0,
    "trend_mm_decade": -33.1,
    "trend_pct_decade": -2.2,
    "years_data": 26
  },
  {
    "station": "Flachberg",
    "hzb": "115782",
    "lat": 49.07409918918919,
    "lon": 15.724501199999999,
    "mean_annual_mm": 695.0,
    "trend_mm_decade": -32.8,
    "trend_pct_decade": -4.7,
    "years_data": 31
  },
  {
    "station": "Werfen",
    "hzb": "115584",
    "lat": 48.232704504504504,
    "lon": 12.8578416,
    "mean_annual_mm": 1017.0,
    "trend_mm_decade": -31.8,
    "trend_pct_decade": -3.1,
    "years_data": 14
  },
  {
    "station": "Wien-Bisamberg",
    "hzb": "117069",
    "lat": 49.10549810810811,
    "lon": 16.0148092,
    "mean_annual_mm": 609.0,
    "trend_mm_decade": -31.1,
    "trend_pct_decade": -5.1,
    "years_data": 37
  },
  {
    "station": "Niederndorferberg",
    "hzb": "103176",
    "lat": 48.43018882882883,
    "lon": 11.903973866666666,
    "mean_annual_mm": 1785.0,
    "trend_mm_decade": -30.2,
    "trend_pct_decade": -1.7,
    "years_data": 43
  },
  {
    "station": "Viehdorf",
    "hzb": "116491",
    "lat": 48.915545945945944,
    "lon": 14.542415333333334,
    "mean_annual_mm": 917.0,
    "trend_mm_decade": -29.8,
    "trend_pct_decade": -3.2,
    "years_data": 25
  },
  {
    "station": "Feistritz an der Gail",
    "hzb": "113738",
    "lat": 47.32833216216216,
    "lon": 13.28322,
    "mean_annual_mm": 1263.0,
    "trend_mm_decade": -29.7,
    "trend_pct_decade": -2.4,
    "years_data": 52
  },
  {
    "station": "Pleschkogel",
    "hzb": "112060",
    "lat": 47.907922342342346,
    "lon": 14.875151333333333,
    "mean_annual_mm": 976.0,
    "trend_mm_decade": -28.9,
    "trend_pct_decade": -3.0,
    "years_data": 51
  },
  {
    "station": "Glash\u00fctten bei Langeck",
    "hzb": "111351",
    "lat": 48.16838558558558,
    "lon": 16.070093733333334,
    "mean_annual_mm": 878.0,
    "trend_mm_decade": -28.1,
    "trend_pct_decade": -3.2,
    "years_data": 48
  },
  {
    "station": "Abtenau (Schwaighofbr\u00fccke)",
    "hzb": "104257",
    "lat": 48.326863513513516,
    "lon": 13.0521344,
    "mean_annual_mm": 1375.0,
    "trend_mm_decade": -27.8,
    "trend_pct_decade": -2.0,
    "years_data": 21
  },
  {
    "station": "Miesenbach",
    "hzb": "109181",
    "lat": 48.620981441441444,
    "lon": 15.641858800000001,
    "mean_annual_mm": 879.0,
    "trend_mm_decade": -27.3,
    "trend_pct_decade": -3.1,
    "years_data": 42
  },
  {
    "station": "St.Ruprecht an der Raab",
    "hzb": "123083",
    "lat": 47.92435990990991,
    "lon": 15.349834533333333,
    "mean_annual_mm": 793.0,
    "trend_mm_decade": -27.2,
    "trend_pct_decade": -3.4,
    "years_data": 27
  },
  {
    "station": "Winklern ob Stra\u00dfburg",
    "hzb": "114520",
    "lat": 47.678626486486486,
    "lon": 13.975446133333334,
    "mean_annual_mm": 894.0,
    "trend_mm_decade": -25.6,
    "trend_pct_decade": -2.9,
    "years_data": 46
  },
  {
    "station": "Lavam\u00fcnd",
    "hzb": "114876",
    "lat": 47.40370288288288,
    "lon": 14.640071466666667,
    "mean_annual_mm": 899.0,
    "trend_mm_decade": -25.5,
    "trend_pct_decade": -2.8,
    "years_data": 21
  },
  {
    "station": "Ginzersdorf",
    "hzb": "115808",
    "lat": 49.43042828828829,
    "lon": 16.327214533333333,
    "mean_annual_mm": 526.0,
    "trend_mm_decade": -24.8,
    "trend_pct_decade": -4.7,
    "years_data": 31
  },
  {
    "station": "J\u00e4gerwirt",
    "hzb": "112789",
    "lat": 47.50589423423423,
    "lon": 14.790681333333332,
    "mean_annual_mm": 1211.0,
    "trend_mm_decade": -24.5,
    "trend_pct_decade": -2.0,
    "years_data": 35
  },
  {
    "station": "Limberg",
    "hzb": "112680",
    "lat": 47.51280981981982,
    "lon": 14.910344,
    "mean_annual_mm": 1062.0,
    "trend_mm_decade": -24.1,
    "trend_pct_decade": -2.3,
    "years_data": 39
  },
  {
    "station": "Untertal-Tetter",
    "hzb": "105957",
    "lat": 48.10982846846847,
    "lon": 13.3809756,
    "mean_annual_mm": 830.0,
    "trend_mm_decade": -23.3,
    "trend_pct_decade": -2.8,
    "years_data": 50
  },
  {
    "station": "St.Wolfgang",
    "hzb": "123026",
    "lat": 47.85654810810811,
    "lon": 14.317454266666667,
    "mean_annual_mm": 940.0,
    "trend_mm_decade": -23.3,
    "trend_pct_decade": -2.5,
    "years_data": 29
  },
  {
    "station": "Alberschwende",
    "hzb": "100842",
    "lat": 48.26347603603604,
    "lon": 9.499776533333334,
    "mean_annual_mm": 1837.0,
    "trend_mm_decade": -23.0,
    "trend_pct_decade": -1.3,
    "years_data": 40
  },
  {
    "station": "Ostermiething",
    "hzb": "104042",
    "lat": 48.805345405405404,
    "lon": 12.503848933333334,
    "mean_annual_mm": 991.0,
    "trend_mm_decade": -23.0,
    "trend_pct_decade": -2.3,
    "years_data": 52
  },
  {
    "station": "Semriach",
    "hzb": "112045",
    "lat": 47.991884054054054,
    "lon": 15.090187466666666,
    "mean_annual_mm": 825.0,
    "trend_mm_decade": -22.7,
    "trend_pct_decade": -2.8,
    "years_data": 50
  },
  {
    "station": "Kappl-Oberbichl",
    "hzb": "119792",
    "lat": 47.86412612612612,
    "lon": 10.027567866666667,
    "mean_annual_mm": 953.0,
    "trend_mm_decade": -22.1,
    "trend_pct_decade": -2.3,
    "years_data": 23
  },
  {
    "station": "Glein",
    "hzb": "115071",
    "lat": 47.98745027027027,
    "lon": 14.577229466666667,
    "mean_annual_mm": 774.0,
    "trend_mm_decade": -21.5,
    "trend_pct_decade": -2.8,
    "years_data": 17
  },
  {
    "station": "Thiersee-Landl",
    "hzb": "103127",
    "lat": 48.349199819819816,
    "lon": 11.705101466666667,
    "mean_annual_mm": 1431.0,
    "trend_mm_decade": -21.0,
    "trend_pct_decade": -1.5,
    "years_data": 44
  },
  {
    "station": "Karlstift",
    "hzb": "106823",
    "lat": 49.357725945945944,
    "lon": 14.372543733333334,
    "mean_annual_mm": 911.0,
    "trend_mm_decade": -20.4,
    "trend_pct_decade": -2.2,
    "years_data": 52
  },
  {
    "station": "Peuerbach",
    "hzb": "104711",
    "lat": 49.060856846846846,
    "lon": 13.4513028,
    "mean_annual_mm": 943.0,
    "trend_mm_decade": -20.3,
    "trend_pct_decade": -2.2,
    "years_data": 52
  },
  {
    "station": "Schletz",
    "hzb": "116160",
    "lat": 49.37750810810811,
    "lon": 16.08673,
    "mean_annual_mm": 579.0,
    "trend_mm_decade": -20.1,
    "trend_pct_decade": -3.5,
    "years_data": 31
  },
  {
    "station": "Magdalensberg",
    "hzb": "114108",
    "lat": 47.48171954954955,
    "lon": 14.117809866666667,
    "mean_annual_mm": 856.0,
    "trend_mm_decade": -19.7,
    "trend_pct_decade": -2.3,
    "years_data": 52
  },
  {
    "station": "Am Nachts\u00f6llberg",
    "hzb": "103333",
    "lat": 48.18545882882883,
    "lon": 11.886833733333333,
    "mean_annual_mm": 1382.0,
    "trend_mm_decade": -19.3,
    "trend_pct_decade": -1.4,
    "years_data": 35
  },
  {
    "station": "Oberwang",
    "hzb": "105700",
    "lat": 48.62264900900901,
    "lon": 13.091509599999998,
    "mean_annual_mm": 1609.0,
    "trend_mm_decade": -19.3,
    "trend_pct_decade": -1.2,
    "years_data": 42
  },
  {
    "station": "Stein (Enns)",
    "hzb": "106708",
    "lat": 48.194069189189186,
    "lon": 13.611639733333334,
    "mean_annual_mm": 913.0,
    "trend_mm_decade": -19.1,
    "trend_pct_decade": -2.1,
    "years_data": 19
  },
  {
    "station": "Hofamt Priel",
    "hzb": "116509",
    "lat": 48.98693189189189,
    "lon": 14.734157866666667,
    "mean_annual_mm": 866.0,
    "trend_mm_decade": -18.6,
    "trend_pct_decade": -2.1,
    "years_data": 24
  },
  {
    "station": "Frankenau",
    "hzb": "110775",
    "lat": 48.25087846846847,
    "lon": 16.28449906666667,
    "mean_annual_mm": 651.0,
    "trend_mm_decade": -18.1,
    "trend_pct_decade": -2.8,
    "years_data": 29
  },
  {
    "station": "Trah\u00fctten",
    "hzb": "112730",
    "lat": 47.59040828828829,
    "lon": 14.833763600000001,
    "mean_annual_mm": 1118.0,
    "trend_mm_decade": -18.0,
    "trend_pct_decade": -1.6,
    "years_data": 35
  },
  {
    "station": "Kirchschlag bei Linz",
    "hzb": "105742",
    "lat": 49.169491441441444,
    "lon": 13.926131333333334,
    "mean_annual_mm": 989.0,
    "trend_mm_decade": -17.6,
    "trend_pct_decade": -1.8,
    "years_data": 32
  },
  {
    "station": "Bosruckh\u00fctte",
    "hzb": "106609",
    "lat": 48.396862612612615,
    "lon": 14.034880000000001,
    "mean_annual_mm": 1532.0,
    "trend_mm_decade": -17.6,
    "trend_pct_decade": -1.1,
    "years_data": 31
  },
  {
    "station": "Sulzberg",
    "hzb": "100727",
    "lat": 48.326007387387385,
    "lon": 9.556999066666666,
    "mean_annual_mm": 1959.0,
    "trend_mm_decade": -16.7,
    "trend_pct_decade": -0.9,
    "years_data": 52
  },
  {
    "station": "Gleinst\u00e4tten",
    "hzb": "112524",
    "lat": 47.50677621621622,
    "lon": 15.049857200000002,
    "mean_annual_mm": 904.0,
    "trend_mm_decade": -16.5,
    "trend_pct_decade": -1.8,
    "years_data": 47
  },
  {
    "station": "Wien-Neustift",
    "hzb": "107953",
    "lat": 49.04116504504505,
    "lon": 15.9423312,
    "mean_annual_mm": 697.0,
    "trend_mm_decade": -16.3,
    "trend_pct_decade": -2.3,
    "years_data": 52
  },
  {
    "station": "Birkfeld (Schule)",
    "hzb": "123117",
    "lat": 48.130247567567565,
    "lon": 15.373544,
    "mean_annual_mm": 865.0,
    "trend_mm_decade": -16.3,
    "trend_pct_decade": -1.9,
    "years_data": 26
  },
  {
    "station": "Bromberg",
    "hzb": "103341",
    "lat": 48.244256576576575,
    "lon": 11.8879772,
    "mean_annual_mm": 1430.0,
    "trend_mm_decade": -15.9,
    "trend_pct_decade": -1.1,
    "years_data": 36
  },
  {
    "station": "Hainfeld",
    "hzb": "107490",
    "lat": 48.811925675675674,
    "lon": 15.4355108,
    "mean_annual_mm": 906.0,
    "trend_mm_decade": -15.9,
    "trend_pct_decade": -1.8,
    "years_data": 52
  },
  {
    "station": "Altheim",
    "hzb": "104380",
    "lat": 49.00319648648649,
    "lon": 12.894356933333334,
    "mean_annual_mm": 873.0,
    "trend_mm_decade": -15.7,
    "trend_pct_decade": -1.8,
    "years_data": 52
  },
  {
    "station": "Paal-Stadl",
    "hzb": "112508",
    "lat": 47.84354657657658,
    "lon": 13.668129866666668,
    "mean_annual_mm": 783.0,
    "trend_mm_decade": -15.7,
    "trend_pct_decade": -2.0,
    "years_data": 48
  },
  {
    "station": "Hochfilzen",
    "hzb": "102889",
    "lat": 48.22475162162162,
    "lon": 12.2849864,
    "mean_annual_mm": 1743.0,
    "trend_mm_decade": -15.6,
    "trend_pct_decade": -0.9,
    "years_data": 52
  },
  {
    "station": "Gro\u00df St. Florian",
    "hzb": "101089",
    "lat": 47.594905135135136,
    "lon": 15.015041733333334,
    "mean_annual_mm": 903.0,
    "trend_mm_decade": -15.4,
    "trend_pct_decade": -1.7,
    "years_data": 36
  },
  {
    "station": "Riegersburg",
    "hzb": "109785",
    "lat": 49.630633063063065,
    "lon": 15.382518133333333,
    "mean_annual_mm": 584.0,
    "trend_mm_decade": -15.3,
    "trend_pct_decade": -2.6,
    "years_data": 42
  },
  {
    "station": "Wien-Mauerbach",
    "hzb": "117077",
    "lat": 49.008113243243244,
    "lon": 15.854725333333334,
    "mean_annual_mm": 823.0,
    "trend_mm_decade": -15.3,
    "trend_pct_decade": -1.9,
    "years_data": 37
  },
  {
    "station": "Kobenzl",
    "hzb": "126011",
    "lat": 48.55241972972973,
    "lon": 12.766783866666666,
    "mean_annual_mm": 1579.0,
    "trend_mm_decade": -14.7,
    "trend_pct_decade": -0.9,
    "years_data": 43
  },
  {
    "station": "Neukirchen an der Enknach",
    "hzb": "104307",
    "lat": 48.934957027027025,
    "lon": 12.7066848,
    "mean_annual_mm": 906.0,
    "trend_mm_decade": -14.6,
    "trend_pct_decade": -1.6,
    "years_data": 52
  },
  {
    "station": "Wien (J\u00e4gerwiese)",
    "hzb": "108852",
    "lat": 49.06464702702703,
    "lon": 15.936097466666666,
    "mean_annual_mm": 719.0,
    "trend_mm_decade": -14.5,
    "trend_pct_decade": -2.0,
    "years_data": 45
  },
  {
    "station": "Kitzeck im Sausal",
    "hzb": "112300",
    "lat": 47.56450873873874,
    "lon": 15.152499733333332,
    "mean_annual_mm": 878.0,
    "trend_mm_decade": -14.0,
    "trend_pct_decade": -1.6,
    "years_data": 52
  },
  {
    "station": "Illmitz (Biologische Station)",
    "hzb": "122010",
    "lat": 48.57387981981982,
    "lon": 16.415710400000002,
    "mean_annual_mm": 539.0,
    "trend_mm_decade": -13.7,
    "trend_pct_decade": -2.5,
    "years_data": 23
  },
  {
    "station": "Unken",
    "hzb": "110189",
    "lat": 48.39945837837838,
    "lon": 12.386693466666667,
    "mean_annual_mm": 1547.0,
    "trend_mm_decade": -13.5,
    "trend_pct_decade": -0.9,
    "years_data": 15
  },
  {
    "station": "Klaus an der Pyhrnbahn",
    "hzb": "106435",
    "lat": 48.58719126126126,
    "lon": 13.823675333333334,
    "mean_annual_mm": 1537.0,
    "trend_mm_decade": -13.3,
    "trend_pct_decade": -0.9,
    "years_data": 52
  },
  {
    "station": "M\u00f6nichkirchner Schwaig",
    "hzb": "109942",
    "lat": 48.302371531531534,
    "lon": 15.684395466666668,
    "mean_annual_mm": 1028.0,
    "trend_mm_decade": -12.8,
    "trend_pct_decade": -1.2,
    "years_data": 52
  },
  {
    "station": "Oed",
    "hzb": "106948",
    "lat": 48.88855171171171,
    "lon": 14.401428133333333,
    "mean_annual_mm": 796.0,
    "trend_mm_decade": -12.7,
    "trend_pct_decade": -1.6,
    "years_data": 52
  },
  {
    "station": "Innerlaterns",
    "hzb": "100412",
    "lat": 48.06534387387387,
    "lon": 9.3797092,
    "mean_annual_mm": 1786.0,
    "trend_mm_decade": -12.5,
    "trend_pct_decade": -0.7,
    "years_data": 52
  },
  {
    "station": "Gro\u00dflobming",
    "hzb": "112771",
    "lat": 47.95012306306306,
    "lon": 14.493929733333333,
    "mean_annual_mm": 800.0,
    "trend_mm_decade": -12.4,
    "trend_pct_decade": -1.5,
    "years_data": 35
  },
  {
    "station": "Guntramsdorf",
    "hzb": "116244",
    "lat": 48.83948990990991,
    "lon": 15.9673744,
    "mean_annual_mm": 585.0,
    "trend_mm_decade": -12.4,
    "trend_pct_decade": -2.1,
    "years_data": 31
  },
  {
    "station": "Klosterwinkel",
    "hzb": "112763",
    "lat": 47.681216216216214,
    "lon": 14.7904828,
    "mean_annual_mm": 1147.0,
    "trend_mm_decade": -12.3,
    "trend_pct_decade": -1.1,
    "years_data": 36
  },
  {
    "station": "Scheibbs",
    "hzb": "107193",
    "lat": 48.79742882882883,
    "lon": 14.819769066666668,
    "mean_annual_mm": 1018.0,
    "trend_mm_decade": -12.0,
    "trend_pct_decade": -1.2,
    "years_data": 52
  },
  {
    "station": "Linz (Wasserwerk Scharlinz)",
    "hzb": "105726",
    "lat": 49.023850900900904,
    "lon": 13.968119733333333,
    "mean_annual_mm": 826.0,
    "trend_mm_decade": -11.8,
    "trend_pct_decade": -1.4,
    "years_data": 35
  },
  {
    "station": "Wies",
    "hzb": "112557",
    "lat": 47.49072855855856,
    "lon": 14.965812533333333,
    "mean_annual_mm": 1031.0,
    "trend_mm_decade": -11.8,
    "trend_pct_decade": -1.1,
    "years_data": 45
  },
  {
    "station": "Niederhollabrunn",
    "hzb": "116392",
    "lat": 49.23958846846847,
    "lon": 15.927523066666666,
    "mean_annual_mm": 589.0,
    "trend_mm_decade": -11.8,
    "trend_pct_decade": -2.0,
    "years_data": 26
  },
  {
    "station": "Doren",
    "hzb": "100735",
    "lat": 48.29497171171171,
    "lon": 9.5143956,
    "mean_annual_mm": 1878.0,
    "trend_mm_decade": -11.1,
    "trend_pct_decade": -0.6,
    "years_data": 52
  },
  {
    "station": "St.Johann in Tirol-Almdorf",
    "hzb": "103143",
    "lat": 48.27594207207207,
    "lon": 12.105632666666667,
    "mean_annual_mm": 1558.0,
    "trend_mm_decade": -11.1,
    "trend_pct_decade": -0.7,
    "years_data": 44
  },
  {
    "station": "Mattighofen",
    "hzb": "104349",
    "lat": 48.83266423423424,
    "lon": 12.808892266666666,
    "mean_annual_mm": 1131.0,
    "trend_mm_decade": -11.1,
    "trend_pct_decade": -1.0,
    "years_data": 52
  },
  {
    "station": "Lambrechten",
    "hzb": "104422",
    "lat": 49.05919972972973,
    "lon": 13.185322533333334,
    "mean_annual_mm": 935.0,
    "trend_mm_decade": -11.1,
    "trend_pct_decade": -1.2,
    "years_data": 52
  },
  {
    "station": "Neumarkt im Hausruck",
    "hzb": "104703",
    "lat": 49.02809,
    "lon": 13.393511466666666,
    "mean_annual_mm": 883.0,
    "trend_mm_decade": -11.1,
    "trend_pct_decade": -1.3,
    "years_data": 52
  },
  {
    "station": "Ibm",
    "hzb": "104034",
    "lat": 48.82038369369369,
    "lon": 12.628502666666666,
    "mean_annual_mm": 1094.0,
    "trend_mm_decade": -10.8,
    "trend_pct_decade": -1.0,
    "years_data": 52
  },
  {
    "station": "Ernsthofen",
    "hzb": "115766",
    "lat": 48.88875081081081,
    "lon": 14.141239866666666,
    "mean_annual_mm": 845.0,
    "trend_mm_decade": -10.8,
    "trend_pct_decade": -1.3,
    "years_data": 31
  },
  {
    "station": "Jochberg",
    "hzb": "102830",
    "lat": 48.138354414414415,
    "lon": 12.0878076,
    "mean_annual_mm": 1350.0,
    "trend_mm_decade": -10.7,
    "trend_pct_decade": -0.8,
    "years_data": 52
  },
  {
    "station": "Waldzell",
    "hzb": "104364",
    "lat": 48.895537387387385,
    "lon": 13.091661333333333,
    "mean_annual_mm": 1060.0,
    "trend_mm_decade": -10.7,
    "trend_pct_decade": -1.0,
    "years_data": 52
  },
  {
    "station": "Margarethen am Moos",
    "hzb": "116020",
    "lat": 48.83871648648649,
    "lon": 16.2481916,
    "mean_annual_mm": 622.0,
    "trend_mm_decade": -10.6,
    "trend_pct_decade": -1.7,
    "years_data": 29
  },
  {
    "station": "Drasendorf",
    "hzb": "114454",
    "lat": 47.55040711711712,
    "lon": 14.120918266666667,
    "mean_annual_mm": 752.0,
    "trend_mm_decade": -10.5,
    "trend_pct_decade": -1.4,
    "years_data": 49
  },
  {
    "station": "Silberegg",
    "hzb": "114025",
    "lat": 47.607643873873876,
    "lon": 14.178186666666667,
    "mean_annual_mm": 798.0,
    "trend_mm_decade": -10.3,
    "trend_pct_decade": -1.3,
    "years_data": 52
  },
  {
    "station": "St.Koloman",
    "hzb": "104174",
    "lat": 48.40313711711712,
    "lon": 12.899265866666667,
    "mean_annual_mm": 1688.0,
    "trend_mm_decade": -10.2,
    "trend_pct_decade": -0.6,
    "years_data": 32
  },
  {
    "station": "Graz-Andritz",
    "hzb": "112086",
    "lat": 47.876936126126125,
    "lon": 15.101056533333333,
    "mean_annual_mm": 818.0,
    "trend_mm_decade": -10.2,
    "trend_pct_decade": -1.2,
    "years_data": 52
  },
  {
    "station": "D\u00fcrnbach im Burgenland",
    "hzb": "111468",
    "lat": 48.05601171171171,
    "lon": 16.080980266666668,
    "mean_annual_mm": 622.0,
    "trend_mm_decade": -10.0,
    "trend_pct_decade": -1.6,
    "years_data": 30
  },
  {
    "station": "Sch\u00f6der",
    "hzb": "111674",
    "lat": 47.93624675675676,
    "lon": 13.7830716,
    "mean_annual_mm": 725.0,
    "trend_mm_decade": -10.0,
    "trend_pct_decade": -1.4,
    "years_data": 52
  },
  {
    "station": "Fieberbrunn",
    "hzb": "103135",
    "lat": 48.22322702702703,
    "lon": 12.2132624,
    "mean_annual_mm": 1547.0,
    "trend_mm_decade": -9.9,
    "trend_pct_decade": -0.6,
    "years_data": 45
  },
  {
    "station": "Limbach",
    "hzb": "116004",
    "lat": 49.46740855855856,
    "lon": 14.746096133333332,
    "mean_annual_mm": 679.0,
    "trend_mm_decade": -9.3,
    "trend_pct_decade": -1.4,
    "years_data": 28
  },
  {
    "station": "Brandberger Kolmhaus",
    "hzb": "103184",
    "lat": 47.93507891891892,
    "lon": 11.589498933333333,
    "mean_annual_mm": 1530.0,
    "trend_mm_decade": -9.2,
    "trend_pct_decade": -0.6,
    "years_data": 40
  },
  {
    "station": "Zwieselgraben",
    "hzb": "112920",
    "lat": 48.32607342342342,
    "lon": 15.460155733333334,
    "mean_annual_mm": 1142.0,
    "trend_mm_decade": -9.1,
    "trend_pct_decade": -0.8,
    "years_data": 28
  },
  {
    "station": "Vorchdorf",
    "hzb": "105510",
    "lat": 48.76488531531532,
    "lon": 13.5458872,
    "mean_annual_mm": 996.0,
    "trend_mm_decade": -8.7,
    "trend_pct_decade": -0.9,
    "years_data": 52
  },
  {
    "station": "Bad Waltersdorf",
    "hzb": "111005",
    "lat": 47.950356576576574,
    "lon": 15.706548933333334,
    "mean_annual_mm": 718.0,
    "trend_mm_decade": -8.5,
    "trend_pct_decade": -1.2,
    "years_data": 52
  },
  {
    "station": "Meschach",
    "hzb": "100503",
    "lat": 48.14593072072072,
    "lon": 9.326670533333333,
    "mean_annual_mm": 1611.0,
    "trend_mm_decade": -8.4,
    "trend_pct_decade": -0.5,
    "years_data": 52
  },
  {
    "station": "Hollenthon",
    "hzb": "115600",
    "lat": 48.38066801801802,
    "lon": 15.936404666666666,
    "mean_annual_mm": 849.0,
    "trend_mm_decade": -8.2,
    "trend_pct_decade": -1.0,
    "years_data": 31
  },
  {
    "station": "P\u00f6llau",
    "hzb": "111310",
    "lat": 48.07246621621621,
    "lon": 15.528917333333334,
    "mean_annual_mm": 724.0,
    "trend_mm_decade": -7.9,
    "trend_pct_decade": -1.1,
    "years_data": 47
  },
  {
    "station": "Markt Allhau",
    "hzb": "111476",
    "lat": 48.03869072072072,
    "lon": 15.781763733333333,
    "mean_annual_mm": 698.0,
    "trend_mm_decade": -7.9,
    "trend_pct_decade": -1.1,
    "years_data": 26
  },
  {
    "station": "B\u00fcrs (Pumpwerk)",
    "hzb": "115311",
    "lat": 47.95408477477478,
    "lon": 9.439689333333334,
    "mean_annual_mm": 1093.0,
    "trend_mm_decade": -7.2,
    "trend_pct_decade": -0.7,
    "years_data": 18
  },
  {
    "station": "Hinterlug",
    "hzb": "108993",
    "lat": 48.69304918918919,
    "lon": 14.414254933333332,
    "mean_annual_mm": 1330.0,
    "trend_mm_decade": -7.0,
    "trend_pct_decade": -0.5,
    "years_data": 48
  },
  {
    "station": "Stadtschlaining",
    "hzb": "111146",
    "lat": 48.11608558558559,
    "lon": 15.961658266666667,
    "mean_annual_mm": 689.0,
    "trend_mm_decade": -6.8,
    "trend_pct_decade": -1.0,
    "years_data": 52
  },
  {
    "station": "Zehensdorf",
    "hzb": "112664",
    "lat": 47.601105225225226,
    "lon": 15.425542666666665,
    "mean_annual_mm": 885.0,
    "trend_mm_decade": -6.8,
    "trend_pct_decade": -0.8,
    "years_data": 42
  },
  {
    "station": "Maria Laah",
    "hzb": "105635",
    "lat": 48.87193477477477,
    "lon": 14.0358008,
    "mean_annual_mm": 841.0,
    "trend_mm_decade": -6.6,
    "trend_pct_decade": -0.8,
    "years_data": 52
  },
  {
    "station": "Falkert",
    "hzb": "114652",
    "lat": 47.611114594594596,
    "lon": 13.506477733333334,
    "mean_annual_mm": 1118.0,
    "trend_mm_decade": -6.6,
    "trend_pct_decade": -0.6,
    "years_data": 37
  },
  {
    "station": "Ha\u00dfbach",
    "hzb": "110205",
    "lat": 48.41907261261261,
    "lon": 15.712350133333334,
    "mean_annual_mm": 843.0,
    "trend_mm_decade": -6.4,
    "trend_pct_decade": -0.8,
    "years_data": 44
  },
  {
    "station": "Kopfing",
    "hzb": "104471",
    "lat": 49.195435405405405,
    "lon": 13.322412400000001,
    "mean_annual_mm": 1087.0,
    "trend_mm_decade": -6.0,
    "trend_pct_decade": -0.6,
    "years_data": 49
  },
  {
    "station": "Bad Goisern",
    "hzb": "105213",
    "lat": 48.39037954954955,
    "lon": 13.302159866666667,
    "mean_annual_mm": 1590.0,
    "trend_mm_decade": -5.6,
    "trend_pct_decade": -0.4,
    "years_data": 52
  },
  {
    "station": "Dalaas",
    "hzb": "100263",
    "lat": 47.92880882882883,
    "lon": 9.6596412,
    "mean_annual_mm": 1616.0,
    "trend_mm_decade": -5.5,
    "trend_pct_decade": -0.3,
    "years_data": 52
  },
  {
    "station": "Parndorf",
    "hzb": "110718",
    "lat": 48.8035090990991,
    "lon": 16.50891706666667,
    "mean_annual_mm": 600.0,
    "trend_mm_decade": -5.5,
    "trend_pct_decade": -0.9,
    "years_data": 33
  },
  {
    "station": "Stainz",
    "hzb": "112367",
    "lat": 47.663106666666664,
    "lon": 14.964269333333332,
    "mean_annual_mm": 898.0,
    "trend_mm_decade": -5.2,
    "trend_pct_decade": -0.6,
    "years_data": 52
  },
  {
    "station": "Gratkorn",
    "hzb": "112078",
    "lat": 47.91600972972973,
    "lon": 15.011802666666666,
    "mean_annual_mm": 833.0,
    "trend_mm_decade": -5.1,
    "trend_pct_decade": -0.6,
    "years_data": 52
  },
  {
    "station": "Riefensberg",
    "hzb": "100719",
    "lat": 48.305417027027026,
    "lon": 9.615578666666666,
    "mean_annual_mm": 1889.0,
    "trend_mm_decade": -5.0,
    "trend_pct_decade": -0.3,
    "years_data": 52
  },
  {
    "station": "Annaberg",
    "hzb": "115568",
    "lat": 48.64658495495495,
    "lon": 15.0283692,
    "mean_annual_mm": 1585.0,
    "trend_mm_decade": -5.0,
    "trend_pct_decade": -0.3,
    "years_data": 34
  },
  {
    "station": "Melk",
    "hzb": "107284",
    "lat": 48.98486927927928,
    "lon": 14.9807484,
    "mean_annual_mm": 589.0,
    "trend_mm_decade": -4.9,
    "trend_pct_decade": -0.8,
    "years_data": 49
  },
  {
    "station": "Schlitterberg",
    "hzb": "102517",
    "lat": 48.138416036036034,
    "lon": 11.4847944,
    "mean_annual_mm": 1227.0,
    "trend_mm_decade": -4.8,
    "trend_pct_decade": -0.4,
    "years_data": 52
  },
  {
    "station": "Lech",
    "hzb": "101121",
    "lat": 48.00136288288288,
    "lon": 9.772462933333333,
    "mean_annual_mm": 1598.0,
    "trend_mm_decade": -4.6,
    "trend_pct_decade": -0.3,
    "years_data": 52
  },
  {
    "station": "Nexing",
    "hzb": "116442",
    "lat": 49.29220207207207,
    "lon": 16.276449466666666,
    "mean_annual_mm": 561.0,
    "trend_mm_decade": -4.4,
    "trend_pct_decade": -0.8,
    "years_data": 26
  },
  {
    "station": "Neustadtl",
    "hzb": "116087",
    "lat": 48.954926396396395,
    "lon": 14.558132,
    "mean_annual_mm": 1050.0,
    "trend_mm_decade": -4.3,
    "trend_pct_decade": -0.4,
    "years_data": 31
  },
  {
    "station": "Steinholz",
    "hzb": "116210",
    "lat": 48.76875216216216,
    "lon": 14.592657466666667,
    "mean_annual_mm": 1234.0,
    "trend_mm_decade": -4.2,
    "trend_pct_decade": -0.3,
    "years_data": 31
  },
  {
    "station": "Wolfsthal",
    "hzb": "116327",
    "lat": 48.94730954954955,
    "lon": 16.6451368,
    "mean_annual_mm": 633.0,
    "trend_mm_decade": -4.2,
    "trend_pct_decade": -0.7,
    "years_data": 31
  },
  {
    "station": "Gresten",
    "hzb": "109041",
    "lat": 48.75744657657658,
    "lon": 14.680213866666667,
    "mean_annual_mm": 1190.0,
    "trend_mm_decade": -4.1,
    "trend_pct_decade": -0.3,
    "years_data": 42
  },
  {
    "station": "Kukmirn",
    "hzb": "111203",
    "lat": 47.86417099099099,
    "lon": 15.9061084,
    "mean_annual_mm": 712.0,
    "trend_mm_decade": -4.0,
    "trend_pct_decade": -0.6,
    "years_data": 52
  },
  {
    "station": "Matzen",
    "hzb": "109579",
    "lat": 49.19890783783784,
    "lon": 16.3217016,
    "mean_annual_mm": 577.0,
    "trend_mm_decade": -3.9,
    "trend_pct_decade": -0.7,
    "years_data": 52
  },
  {
    "station": "Kraubath an der Mur",
    "hzb": "111807",
    "lat": 48.06658018018018,
    "lon": 14.622209866666665,
    "mean_annual_mm": 710.0,
    "trend_mm_decade": -3.8,
    "trend_pct_decade": -0.5,
    "years_data": 52
  },
  {
    "station": "Altenburg",
    "hzb": "108746",
    "lat": 49.424751801801804,
    "lon": 15.222493199999999,
    "mean_annual_mm": 554.0,
    "trend_mm_decade": -3.7,
    "trend_pct_decade": -0.7,
    "years_data": 47
  },
  {
    "station": "Schwechat (Wismayrstra\u00dfe)",
    "hzb": "116145",
    "lat": 48.933643243243246,
    "lon": 16.120997333333335,
    "mean_annual_mm": 631.0,
    "trend_mm_decade": -3.7,
    "trend_pct_decade": -0.6,
    "years_data": 31
  },
  {
    "station": "Donnerskirchen",
    "hzb": "110460",
    "lat": 48.69446936936937,
    "lon": 16.307711466666667,
    "mean_annual_mm": 602.0,
    "trend_mm_decade": -3.6,
    "trend_pct_decade": -0.6,
    "years_data": 52
  },
  {
    "station": "Reichraming",
    "hzb": "106328",
    "lat": 48.65130639639639,
    "lon": 14.128394266666668,
    "mean_annual_mm": 1378.0,
    "trend_mm_decade": -3.5,
    "trend_pct_decade": -0.3,
    "years_data": 52
  },
  {
    "station": "Gf\u00f6hl",
    "hzb": "107433",
    "lat": 49.29127684684685,
    "lon": 15.125660933333332,
    "mean_annual_mm": 626.0,
    "trend_mm_decade": -3.5,
    "trend_pct_decade": -0.6,
    "years_data": 52
  },
  {
    "station": "Ellmau",
    "hzb": "102806",
    "lat": 48.282135765765766,
    "lon": 11.941472533333334,
    "mean_annual_mm": 1334.0,
    "trend_mm_decade": -3.3,
    "trend_pct_decade": -0.2,
    "years_data": 52
  },
  {
    "station": "Rohr an der Raab",
    "hzb": "110890",
    "lat": 47.758633243243246,
    "lon": 15.513754933333333,
    "mean_annual_mm": 779.0,
    "trend_mm_decade": -3.2,
    "trend_pct_decade": -0.4,
    "years_data": 52
  },
  {
    "station": "Waltra",
    "hzb": "112433",
    "lat": 47.62931,
    "lon": 15.6759056,
    "mean_annual_mm": 765.0,
    "trend_mm_decade": -3.2,
    "trend_pct_decade": -0.4,
    "years_data": 51
  },
  {
    "station": "Kreuzberg",
    "hzb": "112748",
    "lat": 47.47837594594595,
    "lon": 15.166322133333335,
    "mean_annual_mm": 1004.0,
    "trend_mm_decade": -3.2,
    "trend_pct_decade": -0.3,
    "years_data": 36
  },
  {
    "station": "Langenrohr",
    "hzb": "115956",
    "lat": 49.090445045045044,
    "lon": 15.644646533333333,
    "mean_annual_mm": 636.0,
    "trend_mm_decade": -3.2,
    "trend_pct_decade": -0.5,
    "years_data": 31
  },
  {
    "station": "Wultendorf",
    "hzb": "116012",
    "lat": 49.45919369369369,
    "lon": 16.073951066666666,
    "mean_annual_mm": 544.0,
    "trend_mm_decade": -3.2,
    "trend_pct_decade": -0.6,
    "years_data": 31
  },
  {
    "station": "Loretto",
    "hzb": "110700",
    "lat": 48.70831198198198,
    "lon": 16.1795676,
    "mean_annual_mm": 627.0,
    "trend_mm_decade": -3.1,
    "trend_pct_decade": -0.5,
    "years_data": 34
  },
  {
    "station": "Kleinpertenschlag",
    "hzb": "115931",
    "lat": 49.19628315315315,
    "lon": 14.609076,
    "mean_annual_mm": 903.0,
    "trend_mm_decade": -3.1,
    "trend_pct_decade": -0.3,
    "years_data": 31
  },
  {
    "station": "Sch\u00f6nenbach",
    "hzb": "100651",
    "lat": 48.173232162162165,
    "lon": 9.674418,
    "mean_annual_mm": 2234.0,
    "trend_mm_decade": -3.0,
    "trend_pct_decade": -0.1,
    "years_data": 52
  },
  {
    "station": "Gro\u00dfwilfersdorf",
    "hzb": "111344",
    "lat": 47.85807945945946,
    "lon": 15.701677466666666,
    "mean_annual_mm": 733.0,
    "trend_mm_decade": -3.0,
    "trend_pct_decade": -0.4,
    "years_data": 46
  },
  {
    "station": "S\u00f6dingberg",
    "hzb": "112649",
    "lat": 47.8471572972973,
    "lon": 14.895941333333333,
    "mean_annual_mm": 847.0,
    "trend_mm_decade": -3.0,
    "trend_pct_decade": -0.4,
    "years_data": 43
  },
  {
    "station": "Gutau",
    "hzb": "106864",
    "lat": 49.184644144144144,
    "lon": 14.2587408,
    "mean_annual_mm": 777.0,
    "trend_mm_decade": -2.8,
    "trend_pct_decade": -0.4,
    "years_data": 52
  },
  {
    "station": "Hellmons\u00f6dt",
    "hzb": "104885",
    "lat": 49.19072153153153,
    "lon": 13.957480400000001,
    "mean_annual_mm": 1011.0,
    "trend_mm_decade": -2.7,
    "trend_pct_decade": -0.3,
    "years_data": 52
  },
  {
    "station": "Ebelsberg (Gottschallingerstr)",
    "hzb": "105577",
    "lat": 48.994641621621625,
    "lon": 13.975462799999999,
    "mean_annual_mm": 802.0,
    "trend_mm_decade": -2.7,
    "trend_pct_decade": -0.3,
    "years_data": 52
  },
  {
    "station": "Hohenau an der Raab",
    "hzb": "111369",
    "lat": 48.07266117117117,
    "lon": 15.197521733333334,
    "mean_annual_mm": 852.0,
    "trend_mm_decade": -2.6,
    "trend_pct_decade": -0.3,
    "years_data": 42
  },
  {
    "station": "Eisenstadt",
    "hzb": "110734",
    "lat": 48.654045855855856,
    "lon": 16.2000432,
    "mean_annual_mm": 661.0,
    "trend_mm_decade": -2.3,
    "trend_pct_decade": -0.3,
    "years_data": 34
  },
  {
    "station": "Gramais",
    "hzb": "101162",
    "lat": 48.055192972972975,
    "lon": 10.1789876,
    "mean_annual_mm": 1326.0,
    "trend_mm_decade": -2.2,
    "trend_pct_decade": -0.2,
    "years_data": 52
  },
  {
    "station": "Oppenberg",
    "hzb": "106534",
    "lat": 48.245626036036036,
    "lon": 13.940072666666666,
    "mean_annual_mm": 1257.0,
    "trend_mm_decade": -2.2,
    "trend_pct_decade": -0.2,
    "years_data": 46
  },
  {
    "station": "Krumbach",
    "hzb": "110676",
    "lat": 48.305836306306304,
    "lon": 15.872499333333334,
    "mean_annual_mm": 831.0,
    "trend_mm_decade": -2.2,
    "trend_pct_decade": -0.3,
    "years_data": 42
  },
  {
    "station": "Osterwitz-Winkel",
    "hzb": "123067",
    "lat": 47.645268468468466,
    "lon": 14.7658116,
    "mean_annual_mm": 1144.0,
    "trend_mm_decade": -2.2,
    "trend_pct_decade": -0.2,
    "years_data": 29
  },
  {
    "station": "Irschen-Leppen",
    "hzb": "114512",
    "lat": 47.51530594594595,
    "lon": 12.6885508,
    "mean_annual_mm": 1256.0,
    "trend_mm_decade": -2.0,
    "trend_pct_decade": -0.2,
    "years_data": 46
  },
  {
    "station": "Hollern",
    "hzb": "116350",
    "lat": 48.883425495495494,
    "lon": 16.5316488,
    "mean_annual_mm": 601.0,
    "trend_mm_decade": -2.0,
    "trend_pct_decade": -0.3,
    "years_data": 30
  },
  {
    "station": "Wels",
    "hzb": "105528",
    "lat": 48.91903630630631,
    "lon": 13.727044133333333,
    "mean_annual_mm": 827.0,
    "trend_mm_decade": -1.9,
    "trend_pct_decade": -0.2,
    "years_data": 52
  },
  {
    "station": "Gschnaidt",
    "hzb": "112698",
    "lat": 47.96918855855856,
    "lon": 14.8493356,
    "mean_annual_mm": 1027.0,
    "trend_mm_decade": -1.9,
    "trend_pct_decade": -0.2,
    "years_data": 39
  },
  {
    "station": "St.Margarethen ob T\u00f6llerberg",
    "hzb": "114256",
    "lat": 47.431111171171175,
    "lon": 14.264597066666667,
    "mean_annual_mm": 844.0,
    "trend_mm_decade": -1.9,
    "trend_pct_decade": -0.2,
    "years_data": 52
  },
  {
    "station": "Oberndorf",
    "hzb": "104018",
    "lat": 48.71476153153153,
    "lon": 12.6168752,
    "mean_annual_mm": 1116.0,
    "trend_mm_decade": -1.7,
    "trend_pct_decade": -0.2,
    "years_data": 52
  },
  {
    "station": "Ausseraigen",
    "hzb": "110239",
    "lat": 48.34713504504504,
    "lon": 15.746264533333333,
    "mean_annual_mm": 922.0,
    "trend_mm_decade": -1.7,
    "trend_pct_decade": -0.2,
    "years_data": 42
  },
  {
    "station": "Bad Sch\u00f6nau",
    "hzb": "115683",
    "lat": 48.28420918918919,
    "lon": 15.908707066666668,
    "mean_annual_mm": 782.0,
    "trend_mm_decade": -1.7,
    "trend_pct_decade": -0.2,
    "years_data": 35
  },
  {
    "station": "Egg",
    "hzb": "100644",
    "lat": 48.23975963963964,
    "lon": 9.561405066666667,
    "mean_annual_mm": 1855.0,
    "trend_mm_decade": -1.6,
    "trend_pct_decade": -0.1,
    "years_data": 52
  },
  {
    "station": "Scharnitz",
    "hzb": "101287",
    "lat": 48.16038522522523,
    "lon": 10.918038133333333,
    "mean_annual_mm": 1269.0,
    "trend_mm_decade": -1.6,
    "trend_pct_decade": -0.1,
    "years_data": 52
  },
  {
    "station": "Ru\u00dfbach am Pa\u00df Gsch\u00fctt",
    "hzb": "103804",
    "lat": 48.34621477477477,
    "lon": 13.133274400000001,
    "mean_annual_mm": 1600.0,
    "trend_mm_decade": -1.6,
    "trend_pct_decade": -0.1,
    "years_data": 49
  },
  {
    "station": "M\u00f6rbisch am See",
    "hzb": "110502",
    "lat": 48.55809225225225,
    "lon": 16.331204666666665,
    "mean_annual_mm": 602.0,
    "trend_mm_decade": -1.6,
    "trend_pct_decade": -0.3,
    "years_data": 52
  },
  {
    "station": "B\u00e4rental",
    "hzb": "113787",
    "lat": 47.22289621621621,
    "lon": 13.841987333333332,
    "mean_annual_mm": 1864.0,
    "trend_mm_decade": -1.4,
    "trend_pct_decade": -0.1,
    "years_data": 52
  },
  {
    "station": "Walchsee-Kaiserwinkl",
    "hzb": "102913",
    "lat": 48.40603036036036,
    "lon": 11.977538533333334,
    "mean_annual_mm": 1585.0,
    "trend_mm_decade": -1.3,
    "trend_pct_decade": -0.1,
    "years_data": 51
  },
  {
    "station": "Sigharting",
    "hzb": "104430",
    "lat": 49.15142936936937,
    "lon": 13.2601572,
    "mean_annual_mm": 927.0,
    "trend_mm_decade": -1.3,
    "trend_pct_decade": -0.1,
    "years_data": 52
  },
  {
    "station": "Glasing",
    "hzb": "111450",
    "lat": 47.83985648648649,
    "lon": 16.06990186666667,
    "mean_annual_mm": 664.0,
    "trend_mm_decade": -1.3,
    "trend_pct_decade": -0.2,
    "years_data": 30
  },
  {
    "station": "Reichenfels",
    "hzb": "114298",
    "lat": 47.767582162162164,
    "lon": 14.433535466666665,
    "mean_annual_mm": 858.0,
    "trend_mm_decade": -1.3,
    "trend_pct_decade": -0.2,
    "years_data": 52
  },
  {
    "station": "Tschagguns",
    "hzb": "100180",
    "lat": 47.87052009009009,
    "lon": 9.541404666666667,
    "mean_annual_mm": 1218.0,
    "trend_mm_decade": -1.2,
    "trend_pct_decade": -0.1,
    "years_data": 52
  },
  {
    "station": "Kilb",
    "hzb": "107334",
    "lat": 48.882263513513514,
    "lon": 15.065156933333334,
    "mean_annual_mm": 780.0,
    "trend_mm_decade": -1.2,
    "trend_pct_decade": -0.2,
    "years_data": 52
  },
  {
    "station": "Grieskirchen-Moosham",
    "hzb": "104778",
    "lat": 48.986845045045044,
    "lon": 13.4710948,
    "mean_annual_mm": 857.0,
    "trend_mm_decade": -1.1,
    "trend_pct_decade": -0.1,
    "years_data": 52
  },
  {
    "station": "St.Margarethen im Burgenland",
    "hzb": "110452",
    "lat": 48.60150036036036,
    "lon": 16.277383333333333,
    "mean_annual_mm": 564.0,
    "trend_mm_decade": -1.1,
    "trend_pct_decade": -0.2,
    "years_data": 52
  },
  {
    "station": "Leutschach",
    "hzb": "112292",
    "lat": 47.424912882882886,
    "lon": 15.173894933333333,
    "mean_annual_mm": 1051.0,
    "trend_mm_decade": -1.1,
    "trend_pct_decade": -0.1,
    "years_data": 52
  },
  {
    "station": "Gedersberg",
    "hzb": "112862",
    "lat": 47.78117720720721,
    "lon": 15.083547866666667,
    "mean_annual_mm": 853.0,
    "trend_mm_decade": -1.1,
    "trend_pct_decade": -0.1,
    "years_data": 32
  },
  {
    "station": "Diex",
    "hzb": "114272",
    "lat": 47.502722072072075,
    "lon": 14.307610266666668,
    "mean_annual_mm": 944.0,
    "trend_mm_decade": -1.0,
    "trend_pct_decade": -0.1,
    "years_data": 52
  },
  {
    "station": "St.Michael ob Bleiburg",
    "hzb": "114280",
    "lat": 47.33836261261261,
    "lon": 14.446334400000001,
    "mean_annual_mm": 1022.0,
    "trend_mm_decade": -1.0,
    "trend_pct_decade": -0.1,
    "years_data": 52
  },
  {
    "station": "St.Nikolai im Sausal",
    "hzb": "112318",
    "lat": 47.59207306306306,
    "lon": 15.150644266666667,
    "mean_annual_mm": 875.0,
    "trend_mm_decade": -0.9,
    "trend_pct_decade": -0.1,
    "years_data": 52
  },
  {
    "station": "Goldw\u00f6rth",
    "hzb": "104745",
    "lat": 49.08544036036036,
    "lon": 13.743399199999999,
    "mean_annual_mm": 773.0,
    "trend_mm_decade": -0.8,
    "trend_pct_decade": -0.1,
    "years_data": 52
  },
  {
    "station": "Rust",
    "hzb": "110486",
    "lat": 48.60874882882883,
    "lon": 16.3376512,
    "mean_annual_mm": 550.0,
    "trend_mm_decade": -0.8,
    "trend_pct_decade": -0.1,
    "years_data": 52
  },
  {
    "station": "Maria Anzbach",
    "hzb": "116038",
    "lat": 48.99379675675676,
    "lon": 15.591616533333333,
    "mean_annual_mm": 741.0,
    "trend_mm_decade": -0.8,
    "trend_pct_decade": -0.1,
    "years_data": 31
  },
  {
    "station": "Artstetten-Nussendorf",
    "hzb": "109058",
    "lat": 49.02044432432432,
    "lon": 14.833633066666668,
    "mean_annual_mm": 791.0,
    "trend_mm_decade": -0.4,
    "trend_pct_decade": -0.0,
    "years_data": 43
  },
  {
    "station": "Sinabelkirchen",
    "hzb": "111062",
    "lat": 47.88606135135135,
    "lon": 15.527883466666667,
    "mean_annual_mm": 759.0,
    "trend_mm_decade": -0.4,
    "trend_pct_decade": -0.1,
    "years_data": 52
  },
  {
    "station": "Laakirchen",
    "hzb": "105338",
    "lat": 48.73726414414414,
    "lon": 13.478744133333333,
    "mean_annual_mm": 1072.0,
    "trend_mm_decade": -0.3,
    "trend_pct_decade": -0.0,
    "years_data": 52
  },
  {
    "station": "Neuhaus an der Donau",
    "hzb": "104687",
    "lat": 49.179361981981984,
    "lon": 13.657383066666666,
    "mean_annual_mm": 856.0,
    "trend_mm_decade": -0.1,
    "trend_pct_decade": -0.0,
    "years_data": 52
  },
  {
    "station": "Schwarzenberg",
    "hzb": "104596",
    "lat": 49.48834045045045,
    "lon": 13.4925964,
    "mean_annual_mm": 1115.0,
    "trend_mm_decade": -0.0,
    "trend_pct_decade": -0.0,
    "years_data": 52
  },
  {
    "station": "St.Pankraz",
    "hzb": "106427",
    "lat": 48.52458261261261,
    "lon": 13.8459688,
    "mean_annual_mm": 1465.0,
    "trend_mm_decade": 0.1,
    "trend_pct_decade": 0.0,
    "years_data": 52
  },
  {
    "station": "Sieggraben",
    "hzb": "110361",
    "lat": 48.43382054054054,
    "lon": 16.054864266666666,
    "mean_annual_mm": 751.0,
    "trend_mm_decade": 0.1,
    "trend_pct_decade": 0.0,
    "years_data": 52
  },
  {
    "station": "Tannheim-Kienzen",
    "hzb": "101261",
    "lat": 48.288445765765765,
    "lon": 10.159467066666666,
    "mean_annual_mm": 1750.0,
    "trend_mm_decade": 0.3,
    "trend_pct_decade": 0.0,
    "years_data": 52
  },
  {
    "station": "Rosenbach",
    "hzb": "113779",
    "lat": 47.28700144144144,
    "lon": 13.727518666666667,
    "mean_annual_mm": 1410.0,
    "trend_mm_decade": 0.3,
    "trend_pct_decade": 0.0,
    "years_data": 52
  },
  {
    "station": "Neuhofen an der Krems",
    "hzb": "105569",
    "lat": 48.89005207207207,
    "lon": 13.882228133333333,
    "mean_annual_mm": 881.0,
    "trend_mm_decade": 0.4,
    "trend_pct_decade": 0.0,
    "years_data": 52
  },
  {
    "station": "Linz-Urfahr",
    "hzb": "104877",
    "lat": 49.076974414414416,
    "lon": 13.931052266666667,
    "mean_annual_mm": 827.0,
    "trend_mm_decade": 0.5,
    "trend_pct_decade": 0.1,
    "years_data": 52
  },
  {
    "station": "Stephanshart",
    "hzb": "106955",
    "lat": 48.9218118018018,
    "lon": 14.472432666666666,
    "mean_annual_mm": 842.0,
    "trend_mm_decade": 0.5,
    "trend_pct_decade": 0.1,
    "years_data": 52
  },
  {
    "station": "Altp\u00f6lla",
    "hzb": "109124",
    "lat": 49.39657945945946,
    "lon": 15.099482533333333,
    "mean_annual_mm": 619.0,
    "trend_mm_decade": 0.7,
    "trend_pct_decade": 0.1,
    "years_data": 42
  },
  {
    "station": "Nebersdorf",
    "hzb": "110726",
    "lat": 48.303063063063064,
    "lon": 16.252011866666667,
    "mean_annual_mm": 648.0,
    "trend_mm_decade": 0.7,
    "trend_pct_decade": 0.1,
    "years_data": 34
  },
  {
    "station": "Silbertal",
    "hzb": "100206",
    "lat": 47.89683954954955,
    "lon": 9.608258133333333,
    "mean_annual_mm": 1383.0,
    "trend_mm_decade": 0.8,
    "trend_pct_decade": 0.1,
    "years_data": 52
  },
  {
    "station": "Piberstein",
    "hzb": "104802",
    "lat": 49.27967630630631,
    "lon": 13.855037066666668,
    "mean_annual_mm": 980.0,
    "trend_mm_decade": 0.8,
    "trend_pct_decade": 0.1,
    "years_data": 52
  },
  {
    "station": "Z\u00fcrs",
    "hzb": "101113",
    "lat": 47.968846756756754,
    "lon": 9.797934933333334,
    "mean_annual_mm": 1638.0,
    "trend_mm_decade": 0.9,
    "trend_pct_decade": 0.1,
    "years_data": 50
  },
  {
    "station": "Alland-Groisbach",
    "hzb": "108670",
    "lat": 48.82957540540541,
    "lon": 15.704367733333333,
    "mean_annual_mm": 781.0,
    "trend_mm_decade": 0.9,
    "trend_pct_decade": 0.1,
    "years_data": 49
  },
  {
    "station": "Geras",
    "hzb": "109645",
    "lat": 49.57515009009009,
    "lon": 15.286729866666667,
    "mean_annual_mm": 491.0,
    "trend_mm_decade": 0.9,
    "trend_pct_decade": 0.2,
    "years_data": 51
  },
  {
    "station": "Teichalm",
    "hzb": "112011",
    "lat": 48.12415459459459,
    "lon": 15.142454266666666,
    "mean_annual_mm": 911.0,
    "trend_mm_decade": 0.9,
    "trend_pct_decade": 0.1,
    "years_data": 42
  },
  {
    "station": "St.Ulrich-Pillersee",
    "hzb": "103358",
    "lat": 48.26576288288288,
    "lon": 12.2576804,
    "mean_annual_mm": 1626.0,
    "trend_mm_decade": 1.0,
    "trend_pct_decade": 0.1,
    "years_data": 36
  },
  {
    "station": "B\u00e4rnbach",
    "hzb": "112490",
    "lat": 47.83665234234234,
    "lon": 14.821807866666667,
    "mean_annual_mm": 850.0,
    "trend_mm_decade": 1.0,
    "trend_pct_decade": 0.1,
    "years_data": 49
  },
  {
    "station": "Oberw\u00f6lz",
    "hzb": "123158",
    "lat": 47.95793126126126,
    "lon": 13.955953733333335,
    "mean_annual_mm": 713.0,
    "trend_mm_decade": 1.0,
    "trend_pct_decade": 0.1,
    "years_data": 52
  },
  {
    "station": "St.Florian",
    "hzb": "105593",
    "lat": 48.960275855855855,
    "lon": 14.0355832,
    "mean_annual_mm": 846.0,
    "trend_mm_decade": 1.1,
    "trend_pct_decade": 0.1,
    "years_data": 52
  },
  {
    "station": "Lichtenau",
    "hzb": "115980",
    "lat": 49.27357621621621,
    "lon": 15.022280266666666,
    "mean_annual_mm": 582.0,
    "trend_mm_decade": 1.1,
    "trend_pct_decade": 0.2,
    "years_data": 30
  },
  {
    "station": "Hittisau",
    "hzb": "100701",
    "lat": 48.27100063063063,
    "lon": 9.591309066666666,
    "mean_annual_mm": 1992.0,
    "trend_mm_decade": 1.2,
    "trend_pct_decade": 0.1,
    "years_data": 52
  },
  {
    "station": "Brandl-Koralpe",
    "hzb": "114363",
    "lat": 47.487991531531534,
    "lon": 14.666825733333333,
    "mean_annual_mm": 976.0,
    "trend_mm_decade": 1.2,
    "trend_pct_decade": 0.1,
    "years_data": 52
  },
  {
    "station": "Grafenschlag",
    "hzb": "107565",
    "lat": 49.25455963963964,
    "lon": 14.779546266666667,
    "mean_annual_mm": 728.0,
    "trend_mm_decade": 1.3,
    "trend_pct_decade": 0.2,
    "years_data": 52
  },
  {
    "station": "Lasberg",
    "hzb": "108977",
    "lat": 49.247773333333335,
    "lon": 14.1645,
    "mean_annual_mm": 726.0,
    "trend_mm_decade": 1.3,
    "trend_pct_decade": 0.2,
    "years_data": 42
  },
  {
    "station": "Wolfpassing a.d. Hochleithen",
    "hzb": "116178",
    "lat": 49.250191621621624,
    "lon": 16.151416533333332,
    "mean_annual_mm": 582.0,
    "trend_mm_decade": 1.4,
    "trend_pct_decade": 0.2,
    "years_data": 31
  },
  {
    "station": "Kierling",
    "hzb": "115634",
    "lat": 49.098255675675674,
    "lon": 15.9142692,
    "mean_annual_mm": 714.0,
    "trend_mm_decade": 1.5,
    "trend_pct_decade": 0.2,
    "years_data": 32
  },
  {
    "station": "Goldegg",
    "hzb": "103663",
    "lat": 48.06898603603604,
    "lon": 12.753988133333333,
    "mean_annual_mm": 1007.0,
    "trend_mm_decade": 1.6,
    "trend_pct_decade": 0.2,
    "years_data": 47
  },
  {
    "station": "Sajach",
    "hzb": "112219",
    "lat": 47.72302153153153,
    "lon": 15.023496133333332,
    "mean_annual_mm": 809.0,
    "trend_mm_decade": 1.6,
    "trend_pct_decade": 0.2,
    "years_data": 52
  },
  {
    "station": "Wolfsbach",
    "hzb": "116319",
    "lat": 48.829947387387385,
    "lon": 14.330586666666667,
    "mean_annual_mm": 821.0,
    "trend_mm_decade": 1.6,
    "trend_pct_decade": 0.2,
    "years_data": 31
  },
  {
    "station": "M\u00fchlbach am Manhartsberg",
    "hzb": "109132",
    "lat": 49.310433063063066,
    "lon": 15.420266533333333,
    "mean_annual_mm": 542.0,
    "trend_mm_decade": 1.7,
    "trend_pct_decade": 0.3,
    "years_data": 42
  },
  {
    "station": "Deutsch Brodersdorf",
    "hzb": "110015",
    "lat": 48.736868558558555,
    "lon": 16.1210132,
    "mean_annual_mm": 581.0,
    "trend_mm_decade": 1.7,
    "trend_pct_decade": 0.3,
    "years_data": 52
  },
  {
    "station": "Aschach an der Donau",
    "hzb": "104695",
    "lat": 49.131364684684684,
    "lon": 13.6612028,
    "mean_annual_mm": 802.0,
    "trend_mm_decade": 1.8,
    "trend_pct_decade": 0.2,
    "years_data": 52
  },
  {
    "station": "Zwettl-Edelhof",
    "hzb": "107581",
    "lat": 49.37552936936937,
    "lon": 14.858666266666667,
    "mean_annual_mm": 609.0,
    "trend_mm_decade": 1.8,
    "trend_pct_decade": 0.3,
    "years_data": 52
  },
  {
    "station": "Deutsch Jahrndorf",
    "hzb": "110692",
    "lat": 48.8177572972973,
    "lon": 16.74557253333333,
    "mean_annual_mm": 556.0,
    "trend_mm_decade": 1.8,
    "trend_pct_decade": 0.3,
    "years_data": 33
  },
  {
    "station": "Kl\u00f6sterle",
    "hzb": "100826",
    "lat": 47.930437657657656,
    "lon": 9.718065600000001,
    "mean_annual_mm": 1715.0,
    "trend_mm_decade": 1.9,
    "trend_pct_decade": 0.1,
    "years_data": 41
  },
  {
    "station": "Enzersdorf im Thale",
    "hzb": "107847",
    "lat": 49.37549369369369,
    "lon": 15.864901733333333,
    "mean_annual_mm": 593.0,
    "trend_mm_decade": 2.0,
    "trend_pct_decade": 0.3,
    "years_data": 52
  },
  {
    "station": "Schmelz",
    "hzb": "111765",
    "lat": 47.864692432432435,
    "lon": 14.283324533333333,
    "mean_annual_mm": 1065.0,
    "trend_mm_decade": 2.1,
    "trend_pct_decade": 0.2,
    "years_data": 49
  },
  {
    "station": "Frohnleiten",
    "hzb": "112037",
    "lat": 48.037867297297296,
    "lon": 15.0047964,
    "mean_annual_mm": 782.0,
    "trend_mm_decade": 2.1,
    "trend_pct_decade": 0.3,
    "years_data": 50
  },
  {
    "station": "Oberkappel",
    "hzb": "104547",
    "lat": 49.30775054054054,
    "lon": 13.427257466666667,
    "mean_annual_mm": 1082.0,
    "trend_mm_decade": 2.2,
    "trend_pct_decade": 0.2,
    "years_data": 52
  },
  {
    "station": "Wien (Lainzer Tor)",
    "hzb": "108894",
    "lat": 48.95773099099099,
    "lon": 15.898727333333333,
    "mean_annual_mm": 698.0,
    "trend_mm_decade": 2.2,
    "trend_pct_decade": 0.3,
    "years_data": 45
  },
  {
    "station": "Pilgersdorf",
    "hzb": "111260",
    "lat": 48.20231423423424,
    "lon": 16.046675866666668,
    "mean_annual_mm": 698.0,
    "trend_mm_decade": 2.2,
    "trend_pct_decade": 0.3,
    "years_data": 52
  },
  {
    "station": "Heiligenblut",
    "hzb": "113175",
    "lat": 47.7892909009009,
    "lon": 12.512444,
    "mean_annual_mm": 791.0,
    "trend_mm_decade": 2.2,
    "trend_pct_decade": 0.3,
    "years_data": 52
  },
  {
    "station": "Geretsberg",
    "hzb": "104026",
    "lat": 48.848817207207205,
    "lon": 12.621091066666667,
    "mean_annual_mm": 1038.0,
    "trend_mm_decade": 2.3,
    "trend_pct_decade": 0.2,
    "years_data": 52
  },
  {
    "station": "Ottensheim",
    "hzb": "104844",
    "lat": 49.08639900900901,
    "lon": 13.8293312,
    "mean_annual_mm": 832.0,
    "trend_mm_decade": 2.3,
    "trend_pct_decade": 0.3,
    "years_data": 52
  },
  {
    "station": "Tragwein",
    "hzb": "106872",
    "lat": 49.088027837837835,
    "lon": 14.2780896,
    "mean_annual_mm": 730.0,
    "trend_mm_decade": 2.4,
    "trend_pct_decade": 0.3,
    "years_data": 52
  },
  {
    "station": "Wetzelsdorf",
    "hzb": "111419",
    "lat": 47.77446576576577,
    "lon": 15.5747,
    "mean_annual_mm": 787.0,
    "trend_mm_decade": 2.4,
    "trend_pct_decade": 0.3,
    "years_data": 33
  },
  {
    "station": "Obdach",
    "hzb": "111773",
    "lat": 47.82872693693694,
    "lon": 14.377843200000001,
    "mean_annual_mm": 803.0,
    "trend_mm_decade": 2.4,
    "trend_pct_decade": 0.3,
    "years_data": 52
  },
  {
    "station": "Eibiswald",
    "hzb": "112268",
    "lat": 47.45959549549549,
    "lon": 14.96355,
    "mean_annual_mm": 1028.0,
    "trend_mm_decade": 2.8,
    "trend_pct_decade": 0.3,
    "years_data": 52
  },
  {
    "station": "Pernegg",
    "hzb": "112847",
    "lat": 48.135107747747746,
    "lon": 15.014859066666666,
    "mean_annual_mm": 791.0,
    "trend_mm_decade": 2.8,
    "trend_pct_decade": 0.4,
    "years_data": 32
  },
  {
    "station": "Wei\u00dfbriach",
    "hzb": "113704",
    "lat": 47.42961801801802,
    "lon": 12.930874133333333,
    "mean_annual_mm": 1197.0,
    "trend_mm_decade": 2.8,
    "trend_pct_decade": 0.2,
    "years_data": 52
  },
  {
    "station": "Bad Leonfelden",
    "hzb": "104943",
    "lat": 49.27533432432433,
    "lon": 13.951832533333334,
    "mean_annual_mm": 875.0,
    "trend_mm_decade": 2.9,
    "trend_pct_decade": 0.3,
    "years_data": 42
  },
  {
    "station": "Grafenw\u00f6rth",
    "hzb": "107698",
    "lat": 49.18606495495496,
    "lon": 15.389527333333334,
    "mean_annual_mm": 517.0,
    "trend_mm_decade": 2.9,
    "trend_pct_decade": 0.6,
    "years_data": 52
  },
  {
    "station": "Scharfling",
    "hzb": "105379",
    "lat": 48.55326900900901,
    "lon": 13.059363466666667,
    "mean_annual_mm": 1565.0,
    "trend_mm_decade": 3.0,
    "trend_pct_decade": 0.2,
    "years_data": 52
  },
  {
    "station": "Poggschlag",
    "hzb": "108712",
    "lat": 49.129423423423425,
    "lon": 14.781384666666666,
    "mean_annual_mm": 817.0,
    "trend_mm_decade": 3.0,
    "trend_pct_decade": 0.4,
    "years_data": 49
  },
  {
    "station": "Apetlon",
    "hzb": "110569",
    "lat": 48.54853027027027,
    "lon": 16.505982933333332,
    "mean_annual_mm": 586.0,
    "trend_mm_decade": 3.0,
    "trend_pct_decade": 0.5,
    "years_data": 52
  },
  {
    "station": "Arnoldstein",
    "hzb": "113746",
    "lat": 47.301766666666666,
    "lon": 13.3868136,
    "mean_annual_mm": 1209.0,
    "trend_mm_decade": 3.0,
    "trend_pct_decade": 0.2,
    "years_data": 52
  },
  {
    "station": "Kienberg",
    "hzb": "115618",
    "lat": 48.70728711711712,
    "lon": 14.786631333333332,
    "mean_annual_mm": 1425.0,
    "trend_mm_decade": 3.0,
    "trend_pct_decade": 0.2,
    "years_data": 31
  },
  {
    "station": "Birnberg",
    "hzb": "106633",
    "lat": 48.165346486486484,
    "lon": 13.398322933333333,
    "mean_annual_mm": 1010.0,
    "trend_mm_decade": 3.1,
    "trend_pct_decade": 0.3,
    "years_data": 29
  },
  {
    "station": "Klopein am Klopeiner See",
    "hzb": "114249",
    "lat": 47.364015225225224,
    "lon": 14.295120933333333,
    "mean_annual_mm": 913.0,
    "trend_mm_decade": 3.1,
    "trend_pct_decade": 0.3,
    "years_data": 52
  },
  {
    "station": "St.Anna ob Schwanberg",
    "hzb": "112227",
    "lat": 47.51573702702703,
    "lon": 14.8598268,
    "mean_annual_mm": 1195.0,
    "trend_mm_decade": 3.2,
    "trend_pct_decade": 0.3,
    "years_data": 51
  },
  {
    "station": "Breitenbach",
    "hzb": "123034",
    "lat": 47.90445468468469,
    "lon": 14.749993066666667,
    "mean_annual_mm": 948.0,
    "trend_mm_decade": 3.2,
    "trend_pct_decade": 0.3,
    "years_data": 29
  },
  {
    "station": "Lutzmannsburg",
    "hzb": "110387",
    "lat": 48.26396036036036,
    "lon": 16.3221468,
    "mean_annual_mm": 657.0,
    "trend_mm_decade": 3.3,
    "trend_pct_decade": 0.5,
    "years_data": 52
  },
  {
    "station": "Tautendorf",
    "hzb": "116236",
    "lat": 49.355358198198196,
    "lon": 15.248953733333334,
    "mean_annual_mm": 553.0,
    "trend_mm_decade": 3.3,
    "trend_pct_decade": 0.6,
    "years_data": 31
  },
  {
    "station": "P\u00f6chlarn",
    "hzb": "116343",
    "lat": 48.983935585585584,
    "lon": 14.9131928,
    "mean_annual_mm": 633.0,
    "trend_mm_decade": 3.3,
    "trend_pct_decade": 0.5,
    "years_data": 40
  },
  {
    "station": "Judenburg",
    "hzb": "111716",
    "lat": 47.930414144144144,
    "lon": 14.319022133333334,
    "mean_annual_mm": 802.0,
    "trend_mm_decade": 3.5,
    "trend_pct_decade": 0.4,
    "years_data": 52
  },
  {
    "station": "Vichtenstein",
    "hzb": "104521",
    "lat": 49.28685216216216,
    "lon": 13.2946132,
    "mean_annual_mm": 1035.0,
    "trend_mm_decade": 3.6,
    "trend_pct_decade": 0.3,
    "years_data": 52
  },
  {
    "station": "St.Michael im Burgenland",
    "hzb": "111195",
    "lat": 47.918665045045046,
    "lon": 15.975504,
    "mean_annual_mm": 681.0,
    "trend_mm_decade": 3.6,
    "trend_pct_decade": 0.5,
    "years_data": 52
  },
  {
    "station": "Dresdner H\u00fctte",
    "hzb": "103085",
    "lat": 47.77037954954955,
    "lon": 10.7769188,
    "mean_annual_mm": 1299.0,
    "trend_mm_decade": 3.8,
    "trend_pct_decade": 0.3,
    "years_data": 44
  },
  {
    "station": "Trofaiach",
    "hzb": "111872",
    "lat": 48.19332027027027,
    "lon": 14.683813466666667,
    "mean_annual_mm": 773.0,
    "trend_mm_decade": 3.8,
    "trend_pct_decade": 0.5,
    "years_data": 52
  },
  {
    "station": "Flirsch",
    "hzb": "101519",
    "lat": 47.941694414414414,
    "lon": 10.046768,
    "mean_annual_mm": 1047.0,
    "trend_mm_decade": 3.9,
    "trend_pct_decade": 0.4,
    "years_data": 33
  },
  {
    "station": "Orth an der Donau",
    "hzb": "108514",
    "lat": 48.94933882882883,
    "lon": 16.3594652,
    "mean_annual_mm": 532.0,
    "trend_mm_decade": 3.9,
    "trend_pct_decade": 0.7,
    "years_data": 48
  },
  {
    "station": "Kaumberg",
    "hzb": "116335",
    "lat": 48.81706351351352,
    "lon": 15.551432133333334,
    "mean_annual_mm": 877.0,
    "trend_mm_decade": 3.9,
    "trend_pct_decade": 0.4,
    "years_data": 29
  },
  {
    "station": "Pinkafeld",
    "hzb": "111104",
    "lat": 48.15998054054054,
    "lon": 15.8096512,
    "mean_annual_mm": 710.0,
    "trend_mm_decade": 4.1,
    "trend_pct_decade": 0.6,
    "years_data": 52
  },
  {
    "station": "Laimbach am Ostrong",
    "hzb": "115949",
    "lat": 49.08426297297297,
    "lon": 14.7727968,
    "mean_annual_mm": 708.0,
    "trend_mm_decade": 4.1,
    "trend_pct_decade": 0.6,
    "years_data": 31
  },
  {
    "station": "Stuhlfelden",
    "hzb": "103440",
    "lat": 48.04618828828829,
    "lon": 12.189079866666667,
    "mean_annual_mm": 1015.0,
    "trend_mm_decade": 4.2,
    "trend_pct_decade": 0.4,
    "years_data": 52
  },
  {
    "station": "Hebalpe",
    "hzb": "112334",
    "lat": 47.69279855855856,
    "lon": 14.702397466666667,
    "mean_annual_mm": 1130.0,
    "trend_mm_decade": 4.2,
    "trend_pct_decade": 0.4,
    "years_data": 52
  },
  {
    "station": "Unterpurkla",
    "hzb": "112409",
    "lat": 47.50083045045045,
    "lon": 15.6300252,
    "mean_annual_mm": 810.0,
    "trend_mm_decade": 4.2,
    "trend_pct_decade": 0.5,
    "years_data": 52
  },
  {
    "station": "Wolfsberg",
    "hzb": "114702",
    "lat": 47.589086036036036,
    "lon": 14.518304666666666,
    "mean_annual_mm": 776.0,
    "trend_mm_decade": 4.2,
    "trend_pct_decade": 0.5,
    "years_data": 49
  },
  {
    "station": "Oberwart",
    "hzb": "111112",
    "lat": 48.066493243243244,
    "lon": 15.898597066666667,
    "mean_annual_mm": 685.0,
    "trend_mm_decade": 4.3,
    "trend_pct_decade": 0.6,
    "years_data": 52
  },
  {
    "station": "Dreifaltigkeit",
    "hzb": "114165",
    "lat": 47.559601531531534,
    "lon": 13.953507866666667,
    "mean_annual_mm": 912.0,
    "trend_mm_decade": 4.3,
    "trend_pct_decade": 0.5,
    "years_data": 52
  },
  {
    "station": "Oberru\u00dfbach",
    "hzb": "116111",
    "lat": 49.263333513513516,
    "lon": 15.676769199999999,
    "mean_annual_mm": 586.0,
    "trend_mm_decade": 4.3,
    "trend_pct_decade": 0.7,
    "years_data": 39
  },
  {
    "station": "Behamberg",
    "hzb": "106484",
    "lat": 48.79434531531532,
    "lon": 14.155456533333332,
    "mean_annual_mm": 1016.0,
    "trend_mm_decade": 4.4,
    "trend_pct_decade": 0.4,
    "years_data": 52
  },
  {
    "station": "Bruck an der Leitha",
    "hzb": "110049",
    "lat": 48.83674828828829,
    "lon": 16.414021599999998,
    "mean_annual_mm": 581.0,
    "trend_mm_decade": 4.4,
    "trend_pct_decade": 0.8,
    "years_data": 52
  },
  {
    "station": "Ebreichsdorf",
    "hzb": "110130",
    "lat": 48.75884612612612,
    "lon": 16.0559548,
    "mean_annual_mm": 575.0,
    "trend_mm_decade": 4.4,
    "trend_pct_decade": 0.8,
    "years_data": 48
  },
  {
    "station": "Liebenau",
    "hzb": "106831",
    "lat": 49.29732648648648,
    "lon": 14.452691733333333,
    "mean_annual_mm": 880.0,
    "trend_mm_decade": 4.5,
    "trend_pct_decade": 0.5,
    "years_data": 52
  },
  {
    "station": "Kreuzwirt",
    "hzb": "111328",
    "lat": 48.15891612612613,
    "lon": 15.4762184,
    "mean_annual_mm": 939.0,
    "trend_mm_decade": 4.5,
    "trend_pct_decade": 0.5,
    "years_data": 48
  },
  {
    "station": "Grades-Klachl",
    "hzb": "114587",
    "lat": 47.73065,
    "lon": 13.960869599999999,
    "mean_annual_mm": 860.0,
    "trend_mm_decade": 4.5,
    "trend_pct_decade": 0.5,
    "years_data": 39
  },
  {
    "station": "Bernhardsthal",
    "hzb": "109769",
    "lat": 49.50013927927928,
    "lon": 16.4675468,
    "mean_annual_mm": 515.0,
    "trend_mm_decade": 4.6,
    "trend_pct_decade": 0.9,
    "years_data": 42
  },
  {
    "station": "Edmundshof",
    "hzb": "110536",
    "lat": 48.71649054054054,
    "lon": 16.647807866666668,
    "mean_annual_mm": 550.0,
    "trend_mm_decade": 4.6,
    "trend_pct_decade": 0.8,
    "years_data": 52
  },
  {
    "station": "Waidhofen an der Thaya",
    "hzb": "109280",
    "lat": 49.575069909909914,
    "lon": 14.900339333333331,
    "mean_annual_mm": 592.0,
    "trend_mm_decade": 4.7,
    "trend_pct_decade": 0.8,
    "years_data": 52
  },
  {
    "station": "Wolfsegg am Hausruck",
    "hzb": "105460",
    "lat": 48.86632027027027,
    "lon": 13.345340666666665,
    "mean_annual_mm": 1010.0,
    "trend_mm_decade": 4.9,
    "trend_pct_decade": 0.5,
    "years_data": 52
  },
  {
    "station": "Schwarzau im Gebirge",
    "hzb": "109819",
    "lat": 48.60082900900901,
    "lon": 15.353761866666666,
    "mean_annual_mm": 1265.0,
    "trend_mm_decade": 5.0,
    "trend_pct_decade": 0.4,
    "years_data": 51
  },
  {
    "station": "St.Lorenzen",
    "hzb": "112714",
    "lat": 47.44233126126126,
    "lon": 14.870162,
    "mean_annual_mm": 1203.0,
    "trend_mm_decade": 5.0,
    "trend_pct_decade": 0.4,
    "years_data": 39
  },
  {
    "station": "Hohenberg",
    "hzb": "115873",
    "lat": 48.686972882882884,
    "lon": 15.279478133333333,
    "mean_annual_mm": 1259.0,
    "trend_mm_decade": 5.0,
    "trend_pct_decade": 0.4,
    "years_data": 31
  },
  {
    "station": "Brand",
    "hzb": "100313",
    "lat": 47.9163281981982,
    "lon": 9.372181866666667,
    "mean_annual_mm": 1441.0,
    "trend_mm_decade": 5.1,
    "trend_pct_decade": 0.4,
    "years_data": 52
  },
  {
    "station": "Karl",
    "hzb": "110312",
    "lat": 48.29997234234234,
    "lon": 16.0245624,
    "mean_annual_mm": 722.0,
    "trend_mm_decade": 5.1,
    "trend_pct_decade": 0.7,
    "years_data": 52
  },
  {
    "station": "S\u00f6lden",
    "hzb": "102228",
    "lat": 47.76029171171171,
    "lon": 10.649317466666666,
    "mean_annual_mm": 763.0,
    "trend_mm_decade": 5.2,
    "trend_pct_decade": 0.7,
    "years_data": 52
  },
  {
    "station": "Buchberg",
    "hzb": "111989",
    "lat": 48.344385135135134,
    "lon": 14.806664533333333,
    "mean_annual_mm": 1229.0,
    "trend_mm_decade": 5.2,
    "trend_pct_decade": 0.4,
    "years_data": 49
  },
  {
    "station": "Halbturn",
    "hzb": "110544",
    "lat": 48.68351792792793,
    "lon": 16.640713466666668,
    "mean_annual_mm": 552.0,
    "trend_mm_decade": 5.3,
    "trend_pct_decade": 1.0,
    "years_data": 52
  },
  {
    "station": "Wei\u00dfpriach",
    "hzb": "111559",
    "lat": 47.92846954954955,
    "lon": 13.378852,
    "mean_annual_mm": 861.0,
    "trend_mm_decade": 5.3,
    "trend_pct_decade": 0.6,
    "years_data": 52
  },
  {
    "station": "Riegersburg",
    "hzb": "111302",
    "lat": 47.78518936936937,
    "lon": 15.639264933333333,
    "mean_annual_mm": 755.0,
    "trend_mm_decade": 5.4,
    "trend_pct_decade": 0.7,
    "years_data": 48
  },
  {
    "station": "Kirchfidisch",
    "hzb": "111484",
    "lat": 47.953337027027025,
    "lon": 16.048127466666667,
    "mean_annual_mm": 652.0,
    "trend_mm_decade": 5.4,
    "trend_pct_decade": 0.8,
    "years_data": 26
  },
  {
    "station": "Gaberl",
    "hzb": "112896",
    "lat": 47.874611171171175,
    "lon": 14.636246266666667,
    "mean_annual_mm": 1172.0,
    "trend_mm_decade": 5.4,
    "trend_pct_decade": 0.5,
    "years_data": 32
  },
  {
    "station": "St.Leonhard am Walde",
    "hzb": "116194",
    "lat": 48.76515954954955,
    "lon": 14.5325784,
    "mean_annual_mm": 1194.0,
    "trend_mm_decade": 5.4,
    "trend_pct_decade": 0.4,
    "years_data": 31
  },
  {
    "station": "Kirchbach in Steiermark",
    "hzb": "112383",
    "lat": 47.6958009009009,
    "lon": 15.378551999999999,
    "mean_annual_mm": 792.0,
    "trend_mm_decade": 5.5,
    "trend_pct_decade": 0.7,
    "years_data": 52
  },
  {
    "station": "Blons",
    "hzb": "100362",
    "lat": 48.03569981981982,
    "lon": 9.473113333333334,
    "mean_annual_mm": 1715.0,
    "trend_mm_decade": 5.6,
    "trend_pct_decade": 0.3,
    "years_data": 52
  },
  {
    "station": "Nassereith",
    "hzb": "102954",
    "lat": 48.089666036036036,
    "lon": 10.497537466666667,
    "mean_annual_mm": 921.0,
    "trend_mm_decade": 5.6,
    "trend_pct_decade": 0.6,
    "years_data": 49
  },
  {
    "station": "Ernstbrunn",
    "hzb": "109157",
    "lat": 49.316135675675675,
    "lon": 15.980938666666667,
    "mean_annual_mm": 573.0,
    "trend_mm_decade": 5.6,
    "trend_pct_decade": 1.0,
    "years_data": 42
  },
  {
    "station": "Sachsenburg",
    "hzb": "113134",
    "lat": 47.578071711711715,
    "lon": 13.016965066666668,
    "mean_annual_mm": 979.0,
    "trend_mm_decade": 5.6,
    "trend_pct_decade": 0.6,
    "years_data": 52
  },
  {
    "station": "S\u00f6ll-Stockach",
    "hzb": "103226",
    "lat": 48.27218837837838,
    "lon": 11.875738133333332,
    "mean_annual_mm": 1313.0,
    "trend_mm_decade": 5.7,
    "trend_pct_decade": 0.4,
    "years_data": 42
  },
  {
    "station": "Meiningen",
    "hzb": "100404",
    "lat": 48.116394504504505,
    "lon": 9.2187676,
    "mean_annual_mm": 1240.0,
    "trend_mm_decade": 5.8,
    "trend_pct_decade": 0.5,
    "years_data": 52
  },
  {
    "station": "Neustift i. St.-Volderau",
    "hzb": "103101",
    "lat": 47.83999369369369,
    "lon": 10.896212266666666,
    "mean_annual_mm": 937.0,
    "trend_mm_decade": 5.8,
    "trend_pct_decade": 0.6,
    "years_data": 44
  },
  {
    "station": "Admont",
    "hzb": "106153",
    "lat": 48.33943171171171,
    "lon": 14.132353733333334,
    "mean_annual_mm": 1149.0,
    "trend_mm_decade": 5.8,
    "trend_pct_decade": 0.5,
    "years_data": 51
  },
  {
    "station": "Wulkaprodersdorf",
    "hzb": "110668",
    "lat": 48.59713036036036,
    "lon": 16.178632266666668,
    "mean_annual_mm": 580.0,
    "trend_mm_decade": 5.9,
    "trend_pct_decade": 1.0,
    "years_data": 44
  },
  {
    "station": "Kaunertal-Verg\u00f6tschen",
    "hzb": "101873",
    "lat": 47.8239663063063,
    "lon": 10.387201600000001,
    "mean_annual_mm": 822.0,
    "trend_mm_decade": 6.0,
    "trend_pct_decade": 0.7,
    "years_data": 52
  },
  {
    "station": "Telfs-Zimmerbergklamm",
    "hzb": "103382",
    "lat": 48.106676396396395,
    "lon": 10.698312933333334,
    "mean_annual_mm": 1175.0,
    "trend_mm_decade": 6.1,
    "trend_pct_decade": 0.5,
    "years_data": 21
  },
  {
    "station": "St.Johann bei Herberstein",
    "hzb": "111054",
    "lat": 47.98895144144144,
    "lon": 15.514476666666667,
    "mean_annual_mm": 747.0,
    "trend_mm_decade": 6.1,
    "trend_pct_decade": 0.8,
    "years_data": 52
  },
  {
    "station": "Hollenstein an der Ybbs",
    "hzb": "115907",
    "lat": 48.5449481981982,
    "lon": 14.429991600000001,
    "mean_annual_mm": 1554.0,
    "trend_mm_decade": 6.2,
    "trend_pct_decade": 0.4,
    "years_data": 35
  },
  {
    "station": "Sieghartskirchen",
    "hzb": "107789",
    "lat": 49.054432792792795,
    "lon": 15.653683466666667,
    "mean_annual_mm": 654.0,
    "trend_mm_decade": 6.3,
    "trend_pct_decade": 1.0,
    "years_data": 52
  },
  {
    "station": "Au-Argenau",
    "hzb": "100560",
    "lat": 48.12430711711712,
    "lon": 9.622563333333334,
    "mean_annual_mm": 1908.0,
    "trend_mm_decade": 6.5,
    "trend_pct_decade": 0.3,
    "years_data": 52
  },
  {
    "station": "Straden",
    "hzb": "112425",
    "lat": 47.58648945945946,
    "lon": 15.579011066666666,
    "mean_annual_mm": 783.0,
    "trend_mm_decade": 6.5,
    "trend_pct_decade": 0.8,
    "years_data": 52
  },
  {
    "station": "Tulln-Bildeiche",
    "hzb": "108779",
    "lat": 49.14243594594595,
    "lon": 15.687439999999999,
    "mean_annual_mm": 580.0,
    "trend_mm_decade": 6.6,
    "trend_pct_decade": 1.1,
    "years_data": 47
  },
  {
    "station": "Maria Luggau",
    "hzb": "113597",
    "lat": 47.45626441441441,
    "lon": 12.400735733333333,
    "mean_annual_mm": 1143.0,
    "trend_mm_decade": 6.7,
    "trend_pct_decade": 0.6,
    "years_data": 52
  },
  {
    "station": "Hochneukirchen",
    "hzb": "111278",
    "lat": 48.243337207207205,
    "lon": 15.895426666666665,
    "mean_annual_mm": 820.0,
    "trend_mm_decade": 6.9,
    "trend_pct_decade": 0.8,
    "years_data": 52
  },
  {
    "station": "Grubhof-St.Martin",
    "hzb": "103978",
    "lat": 48.331471621621624,
    "lon": 12.364839066666667,
    "mean_annual_mm": 1570.0,
    "trend_mm_decade": 7.0,
    "trend_pct_decade": 0.4,
    "years_data": 52
  },
  {
    "station": "Pillichsdorf",
    "hzb": "108571",
    "lat": 49.16592513513513,
    "lon": 16.155645066666665,
    "mean_annual_mm": 531.0,
    "trend_mm_decade": 7.0,
    "trend_pct_decade": 1.3,
    "years_data": 52
  },
  {
    "station": "Oggau",
    "hzb": "110478",
    "lat": 48.63534693693694,
    "lon": 16.325617866666665,
    "mean_annual_mm": 576.0,
    "trend_mm_decade": 7.0,
    "trend_pct_decade": 1.2,
    "years_data": 52
  },
  {
    "station": "Rainbach im M\u00fchlkreis",
    "hzb": "106807",
    "lat": 49.31073072072072,
    "lon": 14.131819466666666,
    "mean_annual_mm": 740.0,
    "trend_mm_decade": 7.1,
    "trend_pct_decade": 1.0,
    "years_data": 52
  },
  {
    "station": "Sch\u00f6neben-Gugu",
    "hzb": "106849",
    "lat": 49.296746216216214,
    "lon": 14.385718933333333,
    "mean_annual_mm": 894.0,
    "trend_mm_decade": 7.1,
    "trend_pct_decade": 0.8,
    "years_data": 52
  },
  {
    "station": "Mannersdorf an der Rabnitz",
    "hzb": "110338",
    "lat": 48.21989882882883,
    "lon": 16.20254346666667,
    "mean_annual_mm": 714.0,
    "trend_mm_decade": 7.1,
    "trend_pct_decade": 1.0,
    "years_data": 52
  },
  {
    "station": "Kleylehof",
    "hzb": "110528",
    "lat": 48.70677018018018,
    "lon": 16.720590933333334,
    "mean_annual_mm": 533.0,
    "trend_mm_decade": 7.1,
    "trend_pct_decade": 1.3,
    "years_data": 52
  },
  {
    "station": "Deutsch Kaltenbrunn",
    "hzb": "111443",
    "lat": 47.87548882882883,
    "lon": 15.8234532,
    "mean_annual_mm": 707.0,
    "trend_mm_decade": 7.1,
    "trend_pct_decade": 1.0,
    "years_data": 31
  },
  {
    "station": "Breitenstein",
    "hzb": "115691",
    "lat": 48.43694504504504,
    "lon": 15.486946,
    "mean_annual_mm": 905.0,
    "trend_mm_decade": 7.1,
    "trend_pct_decade": 0.8,
    "years_data": 30
  },
  {
    "station": "Schardenberg",
    "hzb": "104505",
    "lat": 49.27648927927928,
    "lon": 13.161698399999999,
    "mean_annual_mm": 944.0,
    "trend_mm_decade": 7.2,
    "trend_pct_decade": 0.8,
    "years_data": 52
  },
  {
    "station": "Kendlbruck",
    "hzb": "115055",
    "lat": 47.82313495495495,
    "lon": 13.555941466666667,
    "mean_annual_mm": 818.0,
    "trend_mm_decade": 7.2,
    "trend_pct_decade": 0.9,
    "years_data": 16
  },
  {
    "station": "K\u00f6ssen",
    "hzb": "102905",
    "lat": 48.42789099099099,
    "lon": 12.068683333333333,
    "mean_annual_mm": 1621.0,
    "trend_mm_decade": 7.3,
    "trend_pct_decade": 0.5,
    "years_data": 52
  },
  {
    "station": "Frankenburg",
    "hzb": "105429",
    "lat": 48.82078711711712,
    "lon": 13.1589016,
    "mean_annual_mm": 1101.0,
    "trend_mm_decade": 7.3,
    "trend_pct_decade": 0.7,
    "years_data": 52
  },
  {
    "station": "Wernberg",
    "hzb": "113761",
    "lat": 47.374073873873876,
    "lon": 13.610326666666666,
    "mean_annual_mm": 1134.0,
    "trend_mm_decade": 7.3,
    "trend_pct_decade": 0.6,
    "years_data": 52
  },
  {
    "station": "Lichtenegg",
    "hzb": "115998",
    "lat": 48.404335045045045,
    "lon": 15.848449866666666,
    "mean_annual_mm": 923.0,
    "trend_mm_decade": 7.3,
    "trend_pct_decade": 0.8,
    "years_data": 31
  },
  {
    "station": "Zug",
    "hzb": "100966",
    "lat": 47.99679720720721,
    "lon": 9.7398684,
    "mean_annual_mm": 1543.0,
    "trend_mm_decade": 7.4,
    "trend_pct_decade": 0.5,
    "years_data": 30
  },
  {
    "station": "Aschau",
    "hzb": "103218",
    "lat": 48.14015738738739,
    "lon": 11.968349333333332,
    "mean_annual_mm": 1468.0,
    "trend_mm_decade": 7.4,
    "trend_pct_decade": 0.5,
    "years_data": 43
  },
  {
    "station": "Liezen",
    "hzb": "106112",
    "lat": 48.30879225225225,
    "lon": 13.9207648,
    "mean_annual_mm": 1013.0,
    "trend_mm_decade": 7.5,
    "trend_pct_decade": 0.7,
    "years_data": 52
  },
  {
    "station": "Trag\u00f6\u00df",
    "hzb": "111997",
    "lat": 48.29559045045045,
    "lon": 14.751838933333334,
    "mean_annual_mm": 1085.0,
    "trend_mm_decade": 7.5,
    "trend_pct_decade": 0.7,
    "years_data": 52
  },
  {
    "station": "Altlichtenwarth",
    "hzb": "115667",
    "lat": 49.451317117117114,
    "lon": 16.3989272,
    "mean_annual_mm": 504.0,
    "trend_mm_decade": 7.7,
    "trend_pct_decade": 1.5,
    "years_data": 42
  },
  {
    "station": "M\u00f6ggers",
    "hzb": "100792",
    "lat": 48.36844603603603,
    "lon": 9.473023466666668,
    "mean_annual_mm": 1833.0,
    "trend_mm_decade": 7.8,
    "trend_pct_decade": 0.4,
    "years_data": 52
  },
  {
    "station": "Ebensee (Wasserwerk)",
    "hzb": "105734",
    "lat": 48.55410702702703,
    "lon": 13.449909066666667,
    "mean_annual_mm": 1737.0,
    "trend_mm_decade": 7.8,
    "trend_pct_decade": 0.5,
    "years_data": 34
  },
  {
    "station": "Stra\u00df",
    "hzb": "112516",
    "lat": 47.50875324324324,
    "lon": 15.3326984,
    "mean_annual_mm": 885.0,
    "trend_mm_decade": 7.8,
    "trend_pct_decade": 0.9,
    "years_data": 48
  },
  {
    "station": "Heiligengeist-Hundsmarhof",
    "hzb": "114462",
    "lat": 47.35714288288288,
    "lon": 13.44312,
    "mean_annual_mm": 1254.0,
    "trend_mm_decade": 7.8,
    "trend_pct_decade": 0.6,
    "years_data": 48
  },
  {
    "station": "Wildend\u00fcrnbach",
    "hzb": "109447",
    "lat": 49.55918126126126,
    "lon": 16.106691066666667,
    "mean_annual_mm": 485.0,
    "trend_mm_decade": 7.9,
    "trend_pct_decade": 1.6,
    "years_data": 52
  },
  {
    "station": "Rotholz",
    "hzb": "102509",
    "lat": 48.15127936936937,
    "lon": 11.457228,
    "mean_annual_mm": 1146.0,
    "trend_mm_decade": 8.0,
    "trend_pct_decade": 0.7,
    "years_data": 52
  },
  {
    "station": "Opponitz",
    "hzb": "107078",
    "lat": 48.65404153153153,
    "lon": 14.493513333333333,
    "mean_annual_mm": 1409.0,
    "trend_mm_decade": 8.1,
    "trend_pct_decade": 0.6,
    "years_data": 52
  },
  {
    "station": "Voitsberg",
    "hzb": "123208",
    "lat": 47.813963333333334,
    "lon": 14.839816800000001,
    "mean_annual_mm": 787.0,
    "trend_mm_decade": 8.1,
    "trend_pct_decade": 1.0,
    "years_data": 23
  },
  {
    "station": "Windhaag bei Freistadt",
    "hzb": "106492",
    "lat": 49.3471990990991,
    "lon": 14.211196533333332,
    "mean_annual_mm": 833.0,
    "trend_mm_decade": 8.2,
    "trend_pct_decade": 1.0,
    "years_data": 50
  },
  {
    "station": "Ladis-Neuegg",
    "hzb": "101816",
    "lat": 47.88074648648649,
    "lon": 10.284467333333334,
    "mean_annual_mm": 857.0,
    "trend_mm_decade": 8.3,
    "trend_pct_decade": 1.0,
    "years_data": 52
  },
  {
    "station": "Ochsengarten-Obergut",
    "hzb": "102269",
    "lat": 48.00752513513513,
    "lon": 10.563299733333334,
    "mean_annual_mm": 1003.0,
    "trend_mm_decade": 8.3,
    "trend_pct_decade": 0.8,
    "years_data": 52
  },
  {
    "station": "Klammstein",
    "hzb": "103655",
    "lat": 48.01700846846847,
    "lon": 12.7460668,
    "mean_annual_mm": 1041.0,
    "trend_mm_decade": 8.3,
    "trend_pct_decade": 0.8,
    "years_data": 52
  },
  {
    "station": "Wien (Rathausplatz)",
    "hzb": "107995",
    "lat": 49.00266117117117,
    "lon": 15.996966,
    "mean_annual_mm": 584.0,
    "trend_mm_decade": 8.5,
    "trend_pct_decade": 1.4,
    "years_data": 52
  },
  {
    "station": "D\u00fcrnkrut",
    "hzb": "109546",
    "lat": 49.27429414414414,
    "lon": 16.477991066666668,
    "mean_annual_mm": 531.0,
    "trend_mm_decade": 8.5,
    "trend_pct_decade": 1.6,
    "years_data": 51
  },
  {
    "station": "Wien (Spargelfeld)",
    "hzb": "117101",
    "lat": 49.03322162162162,
    "lon": 16.106998266666665,
    "mean_annual_mm": 568.0,
    "trend_mm_decade": 8.5,
    "trend_pct_decade": 1.5,
    "years_data": 32
  },
  {
    "station": "Laab",
    "hzb": "106880",
    "lat": 48.97996810810811,
    "lon": 14.295156266666666,
    "mean_annual_mm": 790.0,
    "trend_mm_decade": 8.6,
    "trend_pct_decade": 1.1,
    "years_data": 52
  },
  {
    "station": "Ingering II",
    "hzb": "111781",
    "lat": 48.03069432432432,
    "lon": 14.368473866666665,
    "mean_annual_mm": 821.0,
    "trend_mm_decade": 8.6,
    "trend_pct_decade": 1.0,
    "years_data": 52
  },
  {
    "station": "Kematen am Innbach",
    "hzb": "104752",
    "lat": 48.93042855855856,
    "lon": 13.529517466666666,
    "mean_annual_mm": 840.0,
    "trend_mm_decade": 8.7,
    "trend_pct_decade": 1.0,
    "years_data": 52
  },
  {
    "station": "Wien (Botanischer Garten)",
    "hzb": "108118",
    "lat": 48.98762198198198,
    "lon": 16.023349466666666,
    "mean_annual_mm": 572.0,
    "trend_mm_decade": 8.7,
    "trend_pct_decade": 1.5,
    "years_data": 52
  },
  {
    "station": "Klein Pyhrgas",
    "hzb": "106401",
    "lat": 48.46610045045045,
    "lon": 14.0475824,
    "mean_annual_mm": 1458.0,
    "trend_mm_decade": 8.8,
    "trend_pct_decade": 0.6,
    "years_data": 52
  },
  {
    "station": "Stockerau",
    "hzb": "107870",
    "lat": 49.170587207207205,
    "lon": 15.859270800000001,
    "mean_annual_mm": 589.0,
    "trend_mm_decade": 8.8,
    "trend_pct_decade": 1.5,
    "years_data": 52
  },
  {
    "station": "Donnerskirchen (Waldgasse)",
    "hzb": "110650",
    "lat": 48.70637117117117,
    "lon": 16.2889232,
    "mean_annual_mm": 725.0,
    "trend_mm_decade": 8.8,
    "trend_pct_decade": 1.2,
    "years_data": 43
  },
  {
    "station": "Obertraun",
    "hzb": "105148",
    "lat": 48.313053063063066,
    "lon": 13.346806266666666,
    "mean_annual_mm": 1612.0,
    "trend_mm_decade": 9.0,
    "trend_pct_decade": 0.6,
    "years_data": 52
  },
  {
    "station": "Ossiach",
    "hzb": "113563",
    "lat": 47.413561351351355,
    "lon": 13.650200666666667,
    "mean_annual_mm": 1041.0,
    "trend_mm_decade": 9.0,
    "trend_pct_decade": 0.9,
    "years_data": 52
  },
  {
    "station": "Wien-Neue\u00dfling",
    "hzb": "117093",
    "lat": 49.02997477477477,
    "lon": 16.18121933333333,
    "mean_annual_mm": 561.0,
    "trend_mm_decade": 9.0,
    "trend_pct_decade": 1.6,
    "years_data": 37
  },
  {
    "station": "Franzensdorf",
    "hzb": "108969",
    "lat": 48.99032450450451,
    "lon": 16.278979733333333,
    "mean_annual_mm": 544.0,
    "trend_mm_decade": 9.1,
    "trend_pct_decade": 1.7,
    "years_data": 52
  },
  {
    "station": "Babniak",
    "hzb": "113803",
    "lat": 47.28442081081081,
    "lon": 13.9293056,
    "mean_annual_mm": 1181.0,
    "trend_mm_decade": 9.1,
    "trend_pct_decade": 0.8,
    "years_data": 52
  },
  {
    "station": "Mistelbach (Kl\u00e4ranlage)",
    "hzb": "116541",
    "lat": 49.371117117117116,
    "lon": 16.2232116,
    "mean_annual_mm": 533.0,
    "trend_mm_decade": 9.1,
    "trend_pct_decade": 1.7,
    "years_data": 22
  },
  {
    "station": "Sibratsgf\u00e4ll",
    "hzb": "100685",
    "lat": 48.22473279279279,
    "lon": 9.6858088,
    "mean_annual_mm": 2132.0,
    "trend_mm_decade": 9.2,
    "trend_pct_decade": 0.4,
    "years_data": 52
  },
  {
    "station": "Leopoldsdorf im Marchfeld",
    "hzb": "109736",
    "lat": 49.02795801801802,
    "lon": 16.324605333333334,
    "mean_annual_mm": 526.0,
    "trend_mm_decade": 9.2,
    "trend_pct_decade": 1.8,
    "years_data": 46
  },
  {
    "station": "Waidegg",
    "hzb": "113670",
    "lat": 47.38871891891892,
    "lon": 12.8937632,
    "mean_annual_mm": 1430.0,
    "trend_mm_decade": 9.2,
    "trend_pct_decade": 0.6,
    "years_data": 52
  },
  {
    "station": "Neunkirchen",
    "hzb": "109918",
    "lat": 48.51222198198198,
    "lon": 15.764273466666666,
    "mean_annual_mm": 597.0,
    "trend_mm_decade": 9.3,
    "trend_pct_decade": 1.6,
    "years_data": 52
  },
  {
    "station": "Zelting",
    "hzb": "112441",
    "lat": 47.489556756756755,
    "lon": 15.7388484,
    "mean_annual_mm": 811.0,
    "trend_mm_decade": 9.3,
    "trend_pct_decade": 1.1,
    "years_data": 52
  },
  {
    "station": "Veitsch",
    "hzb": "112565",
    "lat": 48.34927945945946,
    "lon": 15.170548400000001,
    "mean_annual_mm": 865.0,
    "trend_mm_decade": 9.3,
    "trend_pct_decade": 1.1,
    "years_data": 45
  },
  {
    "station": "Wien (Einlaufbauwerk)",
    "hzb": "117143",
    "lat": 49.0911590990991,
    "lon": 15.980416933333334,
    "mean_annual_mm": 657.0,
    "trend_mm_decade": 9.3,
    "trend_pct_decade": 1.4,
    "years_data": 25
  },
  {
    "station": "Gm\u00fcnd",
    "hzb": "109215",
    "lat": 49.52956900900901,
    "lon": 14.6132436,
    "mean_annual_mm": 656.0,
    "trend_mm_decade": 9.4,
    "trend_pct_decade": 1.4,
    "years_data": 52
  },
  {
    "station": "Eichenbrunn",
    "hzb": "115592",
    "lat": 49.411226666666664,
    "lon": 15.978873333333333,
    "mean_annual_mm": 590.0,
    "trend_mm_decade": 9.4,
    "trend_pct_decade": 1.6,
    "years_data": 31
  },
  {
    "station": "Neukirchen",
    "hzb": "104059",
    "lat": 48.00915117117117,
    "lon": 11.956006666666667,
    "mean_annual_mm": 1067.0,
    "trend_mm_decade": 9.5,
    "trend_pct_decade": 0.9,
    "years_data": 48
  },
  {
    "station": "Oberpullendorf",
    "hzb": "110379",
    "lat": 48.285831621621625,
    "lon": 16.20774013333333,
    "mean_annual_mm": 651.0,
    "trend_mm_decade": 9.6,
    "trend_pct_decade": 1.5,
    "years_data": 52
  },
  {
    "station": "Neu\u00dferling",
    "hzb": "104950",
    "lat": 49.18794450450451,
    "lon": 13.8272236,
    "mean_annual_mm": 964.0,
    "trend_mm_decade": 9.7,
    "trend_pct_decade": 1.0,
    "years_data": 35
  },
  {
    "station": "Huttererb\u00f6den",
    "hzb": "106369",
    "lat": 48.43531954954955,
    "lon": 13.847697866666667,
    "mean_annual_mm": 1415.0,
    "trend_mm_decade": 9.7,
    "trend_pct_decade": 0.7,
    "years_data": 52
  },
  {
    "station": "Soboth",
    "hzb": "112706",
    "lat": 47.456385315315316,
    "lon": 14.790697999999999,
    "mean_annual_mm": 1262.0,
    "trend_mm_decade": 9.7,
    "trend_pct_decade": 0.8,
    "years_data": 39
  },
  {
    "station": "Attersee",
    "hzb": "105395",
    "lat": 48.669692522522524,
    "lon": 13.207074666666667,
    "mean_annual_mm": 1189.0,
    "trend_mm_decade": 9.8,
    "trend_pct_decade": 0.8,
    "years_data": 52
  },
  {
    "station": "Pottenstein",
    "hzb": "108266",
    "lat": 48.75019801801802,
    "lon": 15.743591866666666,
    "mean_annual_mm": 703.0,
    "trend_mm_decade": 9.8,
    "trend_pct_decade": 1.4,
    "years_data": 52
  },
  {
    "station": "Vitis",
    "hzb": "109256",
    "lat": 49.52545045045045,
    "lon": 14.811718666666668,
    "mean_annual_mm": 651.0,
    "trend_mm_decade": 9.8,
    "trend_pct_decade": 1.5,
    "years_data": 52
  },
  {
    "station": "Mittersill",
    "hzb": "104265",
    "lat": 48.03890243243243,
    "lon": 12.140395333333334,
    "mean_annual_mm": 1016.0,
    "trend_mm_decade": 9.9,
    "trend_pct_decade": 1.0,
    "years_data": 27
  },
  {
    "station": "St.Johann im Walde",
    "hzb": "113084",
    "lat": 47.65871099099099,
    "lon": 12.281521866666667,
    "mean_annual_mm": 800.0,
    "trend_mm_decade": 9.9,
    "trend_pct_decade": 1.2,
    "years_data": 52
  },
  {
    "station": "Gsch\u00f6\u00dfwand",
    "hzb": "103192",
    "lat": 47.937707297297294,
    "lon": 11.4812488,
    "mean_annual_mm": 1446.0,
    "trend_mm_decade": 10.1,
    "trend_pct_decade": 0.7,
    "years_data": 43
  },
  {
    "station": "Weitersfeld",
    "hzb": "109389",
    "lat": 49.56440036036036,
    "lon": 15.4275844,
    "mean_annual_mm": 520.0,
    "trend_mm_decade": 10.2,
    "trend_pct_decade": 2.0,
    "years_data": 52
  },
  {
    "station": "Kleinarl",
    "hzb": "103705",
    "lat": 48.030676846846845,
    "lon": 12.986026800000001,
    "mean_annual_mm": 1262.0,
    "trend_mm_decade": 10.3,
    "trend_pct_decade": 0.8,
    "years_data": 51
  },
  {
    "station": "Greifenburg",
    "hzb": "113126",
    "lat": 47.49820477477478,
    "lon": 12.843196266666666,
    "mean_annual_mm": 1123.0,
    "trend_mm_decade": 10.3,
    "trend_pct_decade": 0.9,
    "years_data": 52
  },
  {
    "station": "Inzing",
    "hzb": "103036",
    "lat": 48.04232963963964,
    "lon": 10.856035466666667,
    "mean_annual_mm": 823.0,
    "trend_mm_decade": 10.4,
    "trend_pct_decade": 1.3,
    "years_data": 44
  },
  {
    "station": "Scharten",
    "hzb": "104786",
    "lat": 49.09364036036036,
    "lon": 13.681734933333333,
    "mean_annual_mm": 804.0,
    "trend_mm_decade": 10.4,
    "trend_pct_decade": 1.3,
    "years_data": 52
  },
  {
    "station": "Wien-Rothneusiedl",
    "hzb": "108373",
    "lat": 48.931445315315315,
    "lon": 16.0227204,
    "mean_annual_mm": 541.0,
    "trend_mm_decade": 10.4,
    "trend_pct_decade": 1.9,
    "years_data": 52
  },
  {
    "station": "Neumarkt an der Raab",
    "hzb": "110908",
    "lat": 47.71442936936937,
    "lon": 15.869832266666666,
    "mean_annual_mm": 752.0,
    "trend_mm_decade": 10.4,
    "trend_pct_decade": 1.4,
    "years_data": 52
  },
  {
    "station": "Gars am Kamp",
    "hzb": "115790",
    "lat": 49.37551297297297,
    "lon": 15.2945844,
    "mean_annual_mm": 533.0,
    "trend_mm_decade": 10.4,
    "trend_pct_decade": 2.0,
    "years_data": 31
  },
  {
    "station": "Hartberg",
    "hzb": "110999",
    "lat": 48.0664609009009,
    "lon": 15.661288266666666,
    "mean_annual_mm": 729.0,
    "trend_mm_decade": 10.5,
    "trend_pct_decade": 1.4,
    "years_data": 50
  },
  {
    "station": "Fehring",
    "hzb": "111294",
    "lat": 47.71888603603604,
    "lon": 15.722376,
    "mean_annual_mm": 797.0,
    "trend_mm_decade": 10.5,
    "trend_pct_decade": 1.3,
    "years_data": 48
  },
  {
    "station": "St.Martin i.G.",
    "hzb": "102467",
    "lat": 48.08746108108108,
    "lon": 11.215171866666667,
    "mean_annual_mm": 1309.0,
    "trend_mm_decade": 10.7,
    "trend_pct_decade": 0.8,
    "years_data": 52
  },